     3.04           OBSERVATION DATA    M: Mixed            RINEX VERSION / TYPE
CONVBIN demo5 b34L                      20250722 220554 UTC PGM / RUN BY / DATE 
format: u-blox UBX                                          COMMENT             
log: ../../cdio1/raw_output.ubx                             COMMENT             
                                                            MARKER NAME         
                                                            MARKER NUMBER       
                                                            MARKER TYPE         
                                                            OBSERVER / AGENCY   
                                                            REC # / TYPE / VERS 
                                                            ANT # / TYPE        
        0.0000        0.0000        0.0000                  APPROX POSITION XYZ 
        0.0000        0.0000        0.0000                  ANTENNA: DELTA H/E/N
G    4 C1C L1C C2X L2X                                      SYS / # / OBS TYPES 
R    4 C1C L1C C2C L2C                                      SYS / # / OBS TYPES 
E    4 C1X L1X C7X L7X                                      SYS / # / OBS TYPES 
S    2 C1C L1C                                              SYS / # / OBS TYPES 
C    4 C2I L2I C7I L7I                                      SYS / # / OBS TYPES 
  2025    07    22    11    29   06.0050000     GPS         TIME OF FIRST OBS   
  2025    07    22    11    45   11.0050000     GPS         TIME OF LAST OBS    
G L1C                                                       SYS / PHASE SHIFT   
G L2X  0.00000                                              SYS / PHASE SHIFT   
R L1C                                                       SYS / PHASE SHIFT   
R L2C                                                       SYS / PHASE SHIFT   
E L1X  0.00000                                              SYS / PHASE SHIFT   
E L7X  0.00000                                              SYS / PHASE SHIFT   
S L1C                                                       SYS / PHASE SHIFT   
C L2I                                                       SYS / PHASE SHIFT   
C L7I                                                       SYS / PHASE SHIFT   
  8 R01  1 R02 -4 R07  5 R08  6 R17  4 R22 -3 R23  3 R24  2 GLONASS SLOT / FRQ #
 C1C    0.000 C1P    0.000 C2C    0.000 C2P    0.000        GLONASS COD/PHS/BIS 
                                                            END OF HEADER       
> 2025 07 22 11 29 06.0050000  0 18                     
G17  23040838.888   121080427.8311   23040834.452    94348351.2161 
G02  24278564.082   127584806.5381                                 
G19  23520129.145   123599119.3161                                 
G01  22149057.840   116394086.9701   22149050.467    90696652.8421 
G03  21577273.184   113389326.0121   21577268.550    88355410.8531 
C06  41280565.360   214958732.2981                                 
C35  24965865.308   130003817.3801                                 
C19  24415298.137   127136873.1371                                 
R17  25183031.578   134759474.9183   25183021.459   104812909.7921 
R24  21193240.164   113329724.9091   21193238.548    88145405.8301 
R01  20916411.123   111810191.1201                                 
R08  21774940.886   116604311.6851                                 
R02  24359546.854   129987217.9221   24359548.222   101101152.1971 
G06  26086846.756   137087312.4263   26086831.696   106821174.5011 
G22  26930921.619   141522958.6551                                 
G31  25135047.585   132085575.6951   25135054.743   102923989.0721 
E14  21101879.976   110891138.3541   21101880.343    84968526.5021 
E03  29326609.089   154112356.7271                                 
> 2025 07 22 11 29 07.0050000  0 18                     
G17  23040848.808   121080479.657    23040844.299    94348391.557  
G02  24279084.487   127587539.533                                  
G19  23519777.679   123597272.554                                  
G01  22149374.061   116395749.331    22149366.726    90697948.159  
G03  21577472.759   113390374.670    21577468.323    88356227.948  
C06  41280466.829   214958219.060                                  
C35  24965487.072   130001847.674                                  
C19  24414986.729   127135251.124                                  
R17  25182315.812   134755627.8861   25182302.748   104809917.991  
R24  21192912.740   113327973.619    21192910.937    88144043.726  
R01  20916205.641   111809092.348                                  
R08  21775497.789   116607292.988                                  
R02  24358884.342   129983683.933    24358885.984   101098403.535  
G06  26086289.243   137084373.5111   26086273.130   106818884.831  
G22  26931375.668   141525344.686                                  
G31  25134883.438   132084712.981    25134890.826   102923316.834  
E14  21101396.715   110888599.220    21101397.171    84966580.926  
E03  29326060.431   154109473.006                                  
> 2025 07 22 11 29 08.0050000  0 18                     
G17  23040859.034   121080533.723    23040854.611    94348433.701  
G02  24279605.828   127590274.420                                  
G19  23519426.677   123595428.008                                  
G01  22149690.717   116397413.740    22149683.377    90699245.073  
G03  21577672.702   113391425.263    21577668.485    88357046.674  
C06  41280368.506   214957707.579                                  
C35  24965109.190   129999879.911                                  
C19  24414675.664   127133631.086                                  
R17  25181597.676   134751782.994    25181584.282   104806927.510  
R24  21192585.769   113326224.612    21192583.788    88142683.386  
R01  20916000.689   111807995.895                                  
R08  21776055.164   116610276.438                                  
R02  24358222.280   129980151.921    24358224.176   101095656.430  
G06  26085729.789   137081436.762    26085715.225   106816596.417  
G22  26931830.006   141527732.504                                  
G31  25134719.683   132083852.459    25134727.012   102922646.306  
E14  21100914.184   110886063.034    21100914.484    84964637.613  
E03  29325512.220   154106590.962                                  
> 2025 07 22 11 29 09.0050000  0 18                     
G17  23040869.833   121080590.490    23040865.320    94348477.935  
G02  24280127.508   127593011.659                                  
G19  23519075.978   123593586.129                                  
G01  22150007.975   116399080.581    22150000.561    90700543.962  
G03  21577873.084   113392478.337    21577869.182    88357867.258  
C06  41280270.775   214957198.358                                  
C35  24964731.711   129997914.575                                  
C19  24414365.096   127132013.471                                  
R17  25180880.645   134747940.160    25180866.272   104803938.655  
R24  21192259.244   113324478.305    21192257.128    88141325.160  
R01  20915796.250   111806902.281                                  
R08  21776613.028   116613262.457                                  
R02  24357560.690   129976622.347    24357562.873   101092911.224  
G06  26085171.562   137078502.110    26085162.433   106814309.676  
G22  26932284.782   141530122.584                                  
G31  25134556.544   132082994.595    25134563.832   102921977.847  
E14  21100432.098   110883530.241    21100432.629    84962696.906  
E03  29324964.325   154103711.005                                  
> 2025 07 22 11 29 10.0050000  0 19                     
G17  23040881.044   121080649.651    23040876.524    94348524.049  
G02  24280651.694   127595751.054                                  
G19  23518725.873   123591746.643                                  
G01  22150325.462   116400749.761    22150318.195    90701844.572  
G03  21578073.932   113393533.561    21578070.373    88358689.440  
C06  41280173.345   214956691.165                                  
C35  24964354.723   129995951.351                                  
C19  24414054.782   127130398.009                                  
R17  25180164.190   134744099.200    25180148.728   104800951.237  
R24  21191933.078   113322734.421    21191930.909    88139968.787  
R01  20915592.219   111805811.228                                  
R08  21777171.175   116616250.756                                  
R02  24356899.626   129973094.877    24356901.826   101090167.637  
G06  26084613.224   137075569.240    26084604.410   106812024.412  
G22  26932739.978   141532514.641                                  
G31  25134393.684   132082139.102    25134401.060   102921311.199  
S36  39029256.667   205100127.8513 
E14  21099950.735   110881000.563    21099951.349    84960758.592  
E03  29324416.890   154100832.955                                  
> 2025 07 22 11 29 11.0050000  0 19                     
G17  23040892.952   121080711.348    23040888.329    94348572.141  
G02  24281175.633   127598492.573                                  
G19  23518376.290   123589909.644                                  
G01  22150643.648   116402421.173    22150636.194    90703146.980  
G03  21578275.108   113394591.024    21578271.911    88359513.472  
C06  41280076.174   214956185.913                                  
C35  24963978.047   129993990.358                                  
C19  24413744.925   127128784.785                                  
R17  25179448.886   134740260.138    25179431.498   104797965.302  
R24  21191607.419   113320993.041    21191605.029    88138614.385  
R01  20915388.670   111804722.803                                  
R08  21777729.787   116619241.464                                  
R02  24356238.866   129969569.571    24356241.278   101087425.746  
G06  26084055.546   137072636.8903   26084046.564   106809740.536  
G22  26933195.611   141534908.751                                  
G31  25134231.319   132081286.084    25134238.739   102920646.524  
S36  39029311.185   205100414.6972 
E14  21099469.884   110878474.095    21099470.685    84958822.725  
E03  29323869.861   154097956.829                                  
> 2025 07 22 11 29 12.0050000  0 19                     
G17  23040905.262   121080775.610    23040900.532    94348622.201  
G02  24281698.539   127601236.298                                  
G19  23518027.121   123588075.211                                  
G01  22150962.267   116404094.987    22150954.717    90704451.267  
G03  21578476.792   113395650.848    21578473.877    88360339.254  
C06  41279979.543   214955682.944                                  
C35  24963601.955   129992031.673                                  
C19  24413435.592   127127173.872                                  
R17  25178733.432   134736423.198    25178714.634   104794980.971  
R24  21191282.175   113319254.289    21191279.646    88137262.022  
R01  20915185.643   111803637.114                                  
R08  21778288.777                1                                 
R02  24355578.494   129966046.567    24355581.027   101084685.630  
G06  26083498.257   137069707.9432   26083488.677   106807458.261  
G22  26933651.693   141537304.992                                  
G31  25134069.549   132080435.613    25134076.916   102919983.818  
S36  39029366.136   205100702.9573 
E14  21098989.735   110875950.910    21098990.472    84956889.364  
E03  29323323.083   154095082.724                                  
> 2025 07 22 11 29 13.0050000  0 19                     
G17  23040917.777   121080841.971    23040913.165    94348673.878  
G02  24282221.637   127603981.828                                  
G19  23517678.371   123586242.812                                  
G01  22151281.175   116405770.680    22151273.608    90705757.017  
G03  21578678.751   113396712.417    21578676.059    88361166.476  
C06  41279883.440   214955181.609                                  
C35  24963226.050   129990074.759                                  
C19  24413126.485   127125564.766                                  
R17  25178019.457   134732587.633    25177998.017   104791997.766  
R24  21190957.411   113317517.658    21190954.789    88135911.288  
R01  20914983.051   111802553.644                                  
R08  21778848.480   116624744.1263   21778870.867                  
R02  24354918.561   129962525.353    24354921.154   101081946.924  
G06  26082941.112   137066779.9461   26082934.330   106805177.136  
G22  26934107.904   141539702.871                                  
G31  25133908.105   132079587.175    25133915.109   102919322.726  
S36  39029421.267   205100993.1862 
E14  21098510.286   110873430.526    21098510.836    84954958.171  
E03  29322776.570   154092210.113                                  
> 2025 07 22 11 29 14.0050000  0 19                     
G17  23040930.964   121080910.722    23040926.140    94348727.484  
G02  24282745.089   127606729.424                                  
G19  23517330.131   123584412.807                                  
G01  22151600.416   116407448.644    22151592.756    90707064.485  
G03  21578881.223   113397776.150    21578878.823    88361995.385  
C06  41279787.298   214954682.168                                  
C35  24962850.640   129988119.996                                  
C19  24412817.960   127123957.814                                  
R17  25177305.581   134728753.838    25177281.429   104789015.947  
R24  21190633.019   113315783.426    21190630.390    88134562.439  
R01  20914780.972   111801472.685                                  
R08  21779406.407   116627741.5542   21779426.353                  
R02  24354259.072   129959006.313    24354261.695   101079209.889  
G06  26082384.312   137063853.7703   26082376.926   106802897.341  
G22  26934564.542   141542102.710                                  
G31  25133747.200   132078741.116    25133753.601   102918663.444  
S36  39029476.718   205101285.2222 
E14  21098031.262   110870913.249    21098031.879    84953029.336  
E03  29322229.966   154089339.325                                  
> 2025 07 22 11 29 15.0050000  0 19                     
G17  23040944.501   121080981.738    23040939.678    94348782.810  
G02  24283267.614   127609478.942                                  
G19  23516982.358   123582585.034                                  
G01  22151920.245   116409128.597    22151912.423    90708373.532  
G03  21579084.023   113398841.879    21579081.855    88362825.803  
C06  41279691.767   214954184.592                                  
C35  24962475.622   129986167.179                                  
C19  24412509.845   127122352.849                                  
R17  25176592.166   134724921.775    25176565.484   104786035.434  
R24  21190309.155   113314051.452    21190306.223    88133215.366  
R01  20914579.145   111800394.100                                  
R08  21779968.342   116630740.6011   21779988.531                  
R02  24353600.040   129955489.230    24353602.621   101076474.387  
G06  26081827.756   137060929.8093   26081820.183   106800618.922  
G22  26935021.556   141544504.375                                  
G31  25133586.636   132077897.274    25133592.987   102918005.930  
S36  39029532.527   205101578.9202 
E14  21097552.676   110868398.924    21097553.441    84951102.785  
E03  29321683.714   154086470.260                                  
> 2025 07 22 11 29 16.0050000  0 20                     
G17  23040958.428   121081055.311    23040953.596    94348840.131  
G02  24283793.864   127612230.699                                  
G19  23516634.912   123580759.780                                  
G01  22152240.415   116410810.964    22152232.456    90709684.464  
G03  21579287.329   113399909.931    21579285.644    88363658.075  
C06  41279596.661   214953689.169                                  
C35  24962100.964   129984216.648                                  
C19  24412202.067   127120750.164                                  
R17  25175879.245   134721091.728    25175849.720   104783056.559  
R24  21189985.721   113312322.041    21189982.835    88131870.266  
R01  20914377.938   111799318.194                                  
R08  21780528.834   116633742.643                                  
R02  24352941.284   129951974.431    24352944.096   101073740.668  
G06  26081271.581   137058007.6892   26081264.553   106798342.010  
G22  26935479.015   141546908.123                                  
G31  25133426.593   132077055.951    25133432.568   102917350.369  
S36  39029588.583   205101874.5732 
E14  21097074.959   110865887.866    21097075.330    84949178.721  
E03  29321137.976   154083603.164                                  
C09                                  41766274.911   168175480.8471 
> 2025 07 22 11 29 17.0050000  0 20                     
G17  23040972.873   121081131.184    23040968.015    94348899.257  
G02  24284319.555   127614984.392                                  
G19  23516287.930   123578936.818                                  
G01  22152561.024   116412495.443    22152553.032    90710997.032  
G03  21579490.922   113400979.970    21579489.620    88364491.859  
C06  41279501.816   214953195.557                                  
C35  24961726.718   129982268.122                                  
C19  24411894.600   127119149.523                                  
R17  25175167.822   134717263.456    25175134.249   104780079.017  
R24  21189662.716   113310594.955    21189659.677    88130526.998  
R01  20914177.057   111798244.696                                  
R08  21781085.124   116636746.758                                  
R02  24352282.897   129948461.658    24352285.808   101071008.508  
G06  26080715.735   137055087.3032   26080709.026   106796066.366  
G22  26935936.835   141549313.744                                  
G31  25133266.902   132076216.888    25133272.937   102916696.525  
S36  39029645.175   205102171.9192 
E14  21096597.643   110863379.812    21096598.184    84947256.965  
E03  29320592.346   154080737.793                                  
C09                                  41766095.967   168174759.954  
> 2025 07 22 11 29 18.0050000  0 20                     
G17  23040987.797   121081209.868    23040983.066    94348960.590  
G02  24284844.942   127617740.601                                  
G19  23515941.477   123577116.640                                  
G01  22152882.013   116414182.497    22152874.002    90712311.644  
G03  21579695.017   113402052.606    21579693.980    88365327.656  
C06  41279407.350   214952704.377                                  
C35  24961352.979   129980322.120                                  
C19  24411587.888   127117551.426                                  
R17  25174454.026   134713437.341    25174419.057   104777103.180  
R24  21189340.272   113308870.730    21189337.219    88129185.922  
R01  20913976.825   111797174.150                                  
R08  21781647.847   116639753.679                                  
R02  24351624.982   129944951.423    24351627.854   101068278.328  
G06  26080160.305   137052169.2702   26080154.164   106793792.545  
G22  26936395.034   141551721.733                                  
G31  25133107.818   132075380.599    25133113.721   102916044.917  
S36  39029702.029   205102471.474  
E14  21096120.732   110860875.279    21096121.636    84945337.914  
E03  29320047.390   154077874.721                                  
C09                                  41765917.322   168174040.854  
> 2025 07 22 11 29 19.0050000  0 20                     
G17  23041003.198   121081290.691    23040998.367    94349023.542  
G02  24285370.792   127620498.569                                  
G19  23515595.491   123575298.575                                  
G01  22153203.234   116415871.502    22153195.404    90713627.729  
G03  21579899.506   113403127.064    21579898.642    88366164.941  
C06  41279313.258   214952214.861                                  
C35  24960979.596   129978377.970                                  
C19  24411281.434   127115955.190                                  
R17  25173737.769   134709612.837    25173704.538   104774128.537  
R24  21189018.143   113307148.649    21189015.148    88127846.552  
R01  20913777.024   111796105.857                                  
R08  21782209.665   116642762.586                                  
R02  24350967.447   129941443.017    24350970.345   101065549.588  
G06  26079604.867   137049252.0001   26079599.466   106791519.846  
G22  26936853.613   141554131.397                                  
G31  25132949.101   132074546.375    25132954.676   102915394.914  
S36  39029759.198   205102772.559  
E14  21095645.048   110858373.585    21095645.653    84943421.037  
E03  29319502.677   154075013.151                                  
C09                                  41765739.048   168173323.081  
> 2025 07 22 11 29 20.0050000  0 21                     
G17  23041019.029   121081374.110    23041014.265    94349088.548  
G02  24285893.830   127623258.816                                  
G19  23515250.080   123573483.072                                  
G01  22153524.907   116417562.937    22153517.261    90714945.759  
G03  21580104.398   113404203.896    21580103.881    88367004.014  
C06  41279219.620   214951727.516                                  
C35  24960606.692   129976436.134                                  
C19  24410975.335   127114361.284                                  
R17  25173024.759   134705790.224    25172990.116   104771155.424  
R24  21188696.548   113305429.208    21188693.582    88126509.182  
R01  20913577.766   111795040.278                                  
R08  21782768.680   116645773.972                                  
R02  24350310.367   129937936.896    24350313.244   101062822.615  
G06  26079050.126   137046337.482    26079045.345   106789248.693  
G22  26937312.647   141556543.216                                  
G31  25132790.854   132073714.816    25132796.331   102914746.924  
S36  39029816.804   205103075.564  
E14  21095169.582   110855875.185    21095170.241    84941506.682  
E03  29318958.460   154072153.685                                  
E34  25576343.726   134404592.4951                                 
C09                                  41765561.239   168172606.896  
> 2025 07 22 11 29 21.0050000  0 21                     
G17  23041035.347   121081459.954    23041030.575    94349155.456  
G02  24286423.317   127626021.315                                  
G19  23514904.918   123571669.966                                  
G01  22153847.060   116419256.535    22153839.421    90716265.434  
G03  21580309.671   113405282.904    21580309.535    88367844.778  
C06  41279126.407   214951242.088                                  
C35  24960234.186   129974496.443                                  
C19  24410669.495   127112769.531                                  
R17  25172310.686   134701969.552    25172276.270   104768183.792  
R24  21188375.445   113303712.171    21188372.359    88125173.698  
R01  20913378.935   111793977.256                                  
R08  21783331.937   116648787.593                                  
R02  24349653.764   129934432.952    24349656.523   101060097.318  
G06  26078495.829   137043424.739    26078491.618   106786978.963  
G22  26937771.972   141558957.004                                  
G31  25132633.074   132072885.610    25132638.108   102914100.749  
S36  39029874.652   205103380.516  
E14  21094694.826   110853379.936    21094695.401    84939594.720  
E03  29318414.493   154069296.004                                  
E34  25576122.983   134403435.138                                  
C09                                  41765383.938   168171892.296  
> 2025 07 22 11 29 22.0050000  0 20                     
G17  23041052.124   121081548.176    23041047.323    94349224.211  
G19  23514560.374   123569859.031                                  
G01  22154169.903   116420952.429    22154162.028    90717586.751  
G03  21580515.378   113406363.859    21580515.457    88368687.102  
C06  41279033.513   214950758.793                                  
C35  24959862.130   129972558.704                                  
C19  24410364.068   127111179.830                                  
R17  25171592.782   134698150.615    25171562.867   104765213.558  
R24  21188054.882   113301997.466    21188051.825    88123840.084  
R01  20913180.558   111792916.643                                  
R08  21783894.601   116651803.410                                  
R02  24348997.363   129930931.076    24349000.179   101057373.591  
G06  26077941.025   137040513.874    26077937.750   106784710.546  
G22  26938231.625   141561372.545                                  
G31  25132475.645   132072058.712    25132480.334   102913456.444  
S36  39029932.784   205103687.161  
E14  21094220.752   110850887.701    21094221.208    84937685.106  
E03  29317869.811   154066440.186                                  
E34  25575903.561   134402279.662                                  
C09                                  41765206.671   168171179.052  
> 2025 07 22 11 29 23.0050000  0 21                     
G17  23041069.456   121081638.858    23041064.439                1 
G02  24287486.780                                                  
G19  23514216.259   123568050.322                                  
G01  22154492.645                1   22154485.796                  
G03  21580721.445   113407446.448    21580720.474                  
C06  41278940.820   214950276.544                                  
C35  24959490.359   129970622.823                                  
C19  24410057.964   127109577.3053                                 
R17  25170867.075   134694332.806    25170849.538   104762244.962  
R24  21187734.817   113300284.591    21187731.619                  
R01  20912982.726   111791858.043                                  
R08  21784457.741                1                                 
R02  24348337.922   129927396.2513   24348344.308   101054651.091  
G06  26077387.226                1   26077384.220   106782443.435  
G22  26938691.620   141563789.942                                  
G31  25132318.651   132071233.618    25132323.146                  
S36  39029991.335   205103995.250  
E14  21093747.580   110848398.186    21093748.043    84935777.688  
E03  29317319.336   154063552.5841                                 
E34  25575683.738   134401125.469                                  
C09                                  41765029.797   168170466.688  
> 2025 07 22 11 29 24.0050000  0 21                     
G17  23041086.234                1   23041080.704    94349373.7291 
G02  24288014.619                                                  
G19  23513871.426   123566228.3453                                 
G01  22154814.495   116424335.0253   22154808.983                  
G03  21580927.596   113408529.625    21580925.940                  
C06  41278848.486                                                  
C35  24959118.788   129968680.5483                                 
C19  24409756.967   127107989.2982                                 
R17  25170151.427   134690564.2943   25170136.546                  
R24  21187414.610   113298572.451    21187414.153    88121152.1423 
R01  20912784.653   111790799.849                                  
R08  21785021.569                                                  
R02  24347679.830   129923884.8702   24347688.694                1 
G06  26076827.143   137034651.0643   26076831.025   106780176.982  
G22  26939153.855   141566208.0863                                 
G31  25132161.459                    25132165.095                  
S36  39030049.888   205104303.137  
E14  21093273.981                    21093274.212    84933873.5981 
E03  29316778.912   154060697.877                                  
E34  25575464.136   134399972.769                                  
C09                                  41764852.833   168169755.7063 
> 2025 07 22 11 29 25.0050000  0 21                     
G17  23041105.392   121081825.3023   23041097.175    94349446.498  
G02  24288544.242                                                  
G19  23513529.700   123564422.4461                                 
G01  22155134.765                    22155132.972                  
G03  21581134.187   113409615.777    21581133.191    88371131.8501 
C06  41278755.987   214949313.9273                                 
C35  24958747.031                                                  
C19  24409448.120   127106403.8332                                 
R17  25169437.743   134686745.3792   25169423.732                  
R24  21187094.930   113296863.216    21187094.929    88119823.237  
R01  20912587.493   111789745.362                                  
R08  21785585.399                                                  
R02  24347023.755                    24347031.357   101049218.7233 
G06  26076271.860   137031733.4693   26076277.851                  
G22  26939614.170   141568627.8592                                 
G31  25132005.704                    25132007.506                  
S36  39030108.954   205104613.991  
E14  21092803.355                    21092800.442    84931969.529  
E03  29316236.251                                                  
E34  25575244.870   134398821.341                                  
C09                                  41764676.345                  
> 2025 07 22 11 29 26.0050000  0 21                     
G17  23041121.902   121081921.1832   23041116.955    94349521.412  
G02  24289072.606                                                  
G19  23513185.372   123562619.159                                  
G01  22155459.148                    22155457.433                  
G03  21581341.087   113410703.713    21581340.496    88371979.652  
C06  41278666.438                                                  
C35  24958374.762   129964806.8983                                 
C19  24409145.137   127104823.9433                                 
R17  25168719.944                    25168710.530   104753330.3283 
R24  21186775.867   113295211.3243   21186778.606                  
R01  20912390.921   111788693.494                                  
R08  21786149.029                                                  
R02  24346370.297   129916896.1753   24346377.927                  
G06  26075719.309   137028829.0442   26075724.586                  
G22  26940073.119   141571049.6022                                 
G31  25131850.777                    25131850.614                  
S36  39030168.228   205104926.339  
E14  21092330.303   110840943.2661   21092328.801    84930068.235  
E03  29315693.855   154055010.5831                                 
E34  25575026.152   134397672.542                                  
C09                                  41764500.312   168168335.8293 
> 2025 07 22 11 29 27.0050000  0 21                     
G17  23041141.844   121082019.7342   23041139.421    94349614.0431 
G02  24289598.820                                                  
G19  23512843.701                1                                 
G01  22155784.593                    22155781.128                  
G03  21581548.483   113411802.1063   21581547.285                  
C06  41278571.253                                                  
C35  24958006.670   129962889.7913                                 
C19  24408843.130   127103250.8703                                 
R17  25168006.274   134679084.6833   25167998.433                  
R24  21186454.918                    21186456.374                  
R01  20912193.836   111787660.3953                                 
R08  21786715.788                                                  
R02  24345716.013                    24345718.388   101043769.6483 
G06  26075163.658   137025923.7482   26075172.832                  
G22  26940533.327   141573457.5213                                 
G31  25131695.639                    25131696.308                  
S36  39030227.039                1 
E14  21091856.985                    21091856.688                  
E03  29315151.326                                                  
E34  25574807.808   134396521.2641                                 
C09                                  41764322.195                  
> 2025 07 22 11 29 28.0050000  0 21                     
G17  23041160.932   121082117.8373   23041156.008    94349681.1681 
G02  24290129.248                                                  
G19  23512500.335   123559023.0723                                 
G01  22156113.027   116431159.3053   22156106.468                  
G03  21581756.198   113412894.2732   21581754.414                  
C06  41278482.472                                                  
C35  24957636.610   129960961.7952                                 
C19  24408537.546   127101670.2982                                 
R17  25167291.221   134675273.5012   25167283.513                  
R24  21186139.595   113291791.8123   21186133.873    88115827.5883 
R01  20911997.451   111786612.0762                                 
R08  21787281.171                    21787301.450                  
R02  24345065.871   129909935.5173   24345062.966   101041052.9382 
G06  26074615.142   137023020.2642   26074620.516                  
G22  26940995.070                                                  
S36  39030286.697   205105540.0453 
E14  21091385.996   110835981.0261   21091386.358    84926272.8171 
E03  29314613.986   154049335.7321                                 
E34  25574590.816   134395374.416                                  
C09                                  41764146.776                  
G31                                  25131540.097   102909455.5041 
> 2025 07 22 11 29 29.0050000  0 21                     
G17  23041178.918   121082218.7922   23041175.627    94349759.830  
G02  24290650.957   127648231.5213                                 
G19  23512158.294   123557224.9043                                 
G01  22156434.086   116432846.5182   22156431.604    90726882.7961 
G03  21581964.788   113413986.2902   21581961.215    88374523.2221 
C06  41278389.507   214947405.3963                                 
C35  24957266.338   129959034.9562                                 
C19  24408235.400   127100091.5832                                 
R17  25166573.405   134671463.323    25166573.618                  
R24  21185820.641   113290089.985    21185816.228    88114505.9462 
R01  20911801.770   111785564.1003                                 
R08  21787848.151                    21787867.150    90745696.6633 
R02  24344412.038   129906447.3002   24344412.692   101038337.0611 
G06  26074066.901   137020117.8642   26074070.919   106768961.2811 
G22  26941452.196   141578286.7393                                 
S36  39030346.724   205105855.2552 
E14  21090913.216   110833506.549    21090916.112    84924376.802  
E03  29314071.301   154046488.721    29314080.507   118035654.8451 
E34  25574371.736   134394228.623                                  
C09                                  41763973.715   168166206.9823 
G31                                  25131382.188   102908820.869  
> 2025 07 22 11 29 30.0050000  0 21                     
G17  23041197.941   121082321.3272   23041194.184    94349839.772  
G02  24291177.421   127650998.5972                                 
G19  23511816.017   123555426.2862                                 
G01  22156757.789   116434547.1402   22156756.257    90728214.148  
G03  21582173.847   113415079.5892   21582168.346    88375375.172  
C06  41278299.515   214946932.7502                                 
C35  24956896.510   129957109.4492                                 
C19  24407932.207   127098514.2122                                 
R17  25165861.451   134667654.121    25165862.896                  
R24  21185501.623   113288389.745    21185498.632    88113183.5292 
R01  20911605.506   111784518.8052                                 
R08  21788413.440                    21788433.455    90748052.7292 
R02  24343755.110                    24343757.881   101035622.755  
G06  26073515.461   137017216.3512   26073516.401   106766700.396  
G22  26941915.370                                                  
S36  39030406.891   205106171.2422 
E14  21090442.709   110831034.391    21090445.407    84922482.530  
E03  29313528.461   154043642.621    29313538.894   118033474.221  
E34  25574154.397   134393083.969                                  
C09                                  41763798.825   168165501.9932 
G31                                  25131228.244   102908187.456  
> 2025 07 22 11 29 31.0050000  0 21                     
G17  23041217.018   121082425.0941   23041213.626    94349920.999  
G02  24291706.614   127653778.9682                                 
G19  23511474.817   123553633.3472                                 
G01  22157084.552   116436264.2522   22157079.510    90729546.722  
G03  21582380.401   113416174.346    21582380.001    88376228.200  
C06  41278205.638   214946461.5552                                 
C35  24956527.423   129955185.3642                                 
C19  24407628.847   127096938.2422                                 
R17  25165150.369   134663846.058    25165150.871                  
R24  21185186.041   113286691.232    21185180.133    88111861.9811 
R01  20911411.496   111783475.308                                  
R08  21788979.741                    21788998.145    90750410.0552 
R02  24343099.694   129899444.0523   24343103.324   101032909.539  
G06  26072963.191   137014315.877    26072964.503   106764440.348  
G22  26942377.685                                                  
S36  39030467.401   205106488.4802 
E14  21089974.981   110828564.652    21089975.477    84920590.098  
E03  29312987.564   154040797.664    29312997.344   118031294.241  
E34  25573937.247   134391940.543                                  
C09                                  41763625.154   168164797.9822 
G31                                  25131072.553   102907555.359  
> 2025 07 22 11 29 32.0050000  0 21                     
G17  23041237.919   121082531.349    23041235.320    94350003.808  
G02  24292234.721   127656558.1922                                 
G19  23511134.301   123551840.4322                                 
G01  22157409.587   116437976.1682   22157404.468    90730880.706  
G03  21582587.982   113417270.873    21582589.580    88377082.636  
C06  41278119.767   214945991.8912                                 
C35  24956157.836   129953263.0222                                 
C19  24407327.849   127095364.0602                                 
R17  25164437.999   134660039.434    25164443.537                  
R24  21184869.370   113284994.748    21184861.866    88110542.511  
R01  20911217.914   111782433.999                                  
R08  21789548.072                    21789563.999    90752768.8012 
R02  24342449.425   129895957.3272   24342450.305   101030197.638  
G06  26072411.206   137011416.914    26072414.847   106762181.387  
G22  26942840.787                                                  
G31  25130961.438                    25130918.541   102906924.882  
S36  39030528.071   205106807.1332 
E14  21089503.725   110826097.556    21089506.226    84918699.757  
E03  29312446.601   154037954.215    29312456.391   118029115.509  
E34  25573716.789   134390798.659                                  
C09                                  41763450.075   168164095.1662 
> 2025 07 22 11 29 33.0050000  0 21                     
G17  23041259.530   121082639.128    23041255.395    94350087.779  
G02  24292759.137   127659338.4502                                 
G19  23510792.864   123550048.9652                                 
G01  22157736.438   116439689.4222   22157731.232    90732215.675  
G03  21582796.886   113418368.638    21582797.155    88377938.022  
C06  41278027.883   214945523.279                                  
C35  24955789.861   129951341.890                                  
C19  24407025.051   127093790.5851                                 
R17  25163725.697   134656233.673    25163731.342                  
R24  21184552.387   113283299.725    21184545.899    88109224.143  
R01  20911021.818   111781394.274                                  
R08  21790113.395                    21790131.026    90755128.6852 
R02  24341795.019   129892471.2491   24341796.212   101027486.636  
G06  26071859.575   137008518.892    26071863.908   106759923.129  
G22  26943300.040   141587996.6033                                 
G31  25130795.619   132063221.8513   25130764.549   102906295.424  
S36  39030588.962   205107126.5852 
E14  21089038.303   110823632.737    21089036.725    84916811.109  
E03  29311907.548   154035111.673    29311914.797   118026937.478  
E34  25573500.332   134389657.861                                  
C09                                  41763274.650   168163393.108  
> 2025 07 22 11 29 34.0050000  0 21                     
G17  23041280.550   121082748.524    23041276.453    94350173.005  
G02  24293286.865   127662120.0882                                 
G19  23510451.841   123548259.0992                                 
G01  22158062.728   116441404.0952   22158058.307    90733551.773  
G03  21583005.679   113419467.721    21583006.090    88378794.494  
C06  41277938.646   214945055.910                                  
C35  24955420.688   129949422.101                                  
C19  24406723.305   127092218.974                                  
R17  25163015.127   134652428.943    25163024.227                  
R24  21184236.025   113281606.311    21184229.566    88107907.042  
R01  20910827.889   111780356.305                                  
R08  21790681.204                    21790696.226    90757489.6802 
R02  24341142.495   129888986.938    24341142.590   101024776.662  
G06  26071307.986   137005621.808    26071312.336   106757665.664  
G22  26943754.665   141590386.1043                                 
G31  25130652.466   132062415.7292   25130610.929   102905667.279  
S36  39030649.868   205107446.9462 
E14  21088568.512   110821170.205    21088568.462    84914924.252  
E03  29311366.331   154032270.166    29311374.348   118024760.233  
E34  25573283.085   134388518.226                                  
C09                                  41763100.365   168162691.979  
> 2025 07 22 11 29 35.0050000  0 21                     
G17  23041301.389   121082859.231    23041297.082    94350259.286  
G02  24293816.304   127664902.6622                                 
G19  23510111.452   123546470.5212                                 
G01  22158389.161   116443119.8762   22158385.086    90734888.774  
G03  21583215.445   113420567.880    21583215.314    88379651.776  
C06  41277848.232   214944589.403                                  
C35  24955051.926   129947503.358                                  
C19  24406421.651   127090648.435                                  
R17  25162304.325   134648624.964    25162315.828                  
R24  21183919.342   113279914.236    21183913.137    88106590.980  
R01  20910633.899   111779319.749                                  
R08  21791246.415                    21791260.648    90759851.554  
R02  24340491.640   129885503.712    24340489.896   101022067.457  
G06  26070756.533   137002725.410    26070760.038   106755408.733  
G22  26944210.260   141592780.3633                                 
G31  25130495.801   132061610.8472   25130458.017   102905040.096  
S36  39030710.968   205107768.1462 
E14  21088099.510   110818709.703    21088100.016    84913038.930  
E03  29310825.177   154029429.441    29310833.935   118022583.585  
E34  25573066.524   134387379.437                                  
C09                                  41762926.405   168161991.498  
> 2025 07 22 11 29 36.0050000  0 22                     
G17  23041322.624   121082971.174    23041318.424    94350346.503  
G02  24294346.146   127667686.1662                                 
G19  23509771.361   123544683.1772                                 
G01  22158715.785   116444836.6832   22158711.745    90736226.584  
G03  21583425.002   113421669.019    21583424.724    88380509.776  
C06  41277759.256   214944123.709                                  
C35  24954683.372   129945585.592                                  
C19  24406120.292   127089078.875                                  
R07  25927826.229                                                  
R17  25161593.554   134644821.621    25161606.877                  
R24  21183602.984   113278223.426    21183597.015    88105275.929  
R01  20910440.223   111778284.524                                  
R08  21791812.351                    21791827.102    90762214.300  
R02  24339839.053   129882021.423    24339837.391   101019359.048  
G06  26070205.313   136999829.713    26070209.039   106753152.320  
G22  26944667.570   141595183.5242                                 
G31  25130345.020   132060807.1442   25130305.373   102904413.884  
S36  39030772.158   205108089.997  
E14  21087630.998   110816251.182    21087632.243    84911155.113  
E03  29310284.860   154026589.349    29310293.433   118020407.411  
E34  25572850.281   134386241.447                                  
C09                                  41762752.712   168161291.601  
> 2025 07 22 11 29 37.0050000  0 22                     
G17  23041344.107   121083083.982    23041339.844    94350434.403  
G02  24294875.861   127670470.201                                  
G19  23509431.375   123542896.1441                                 
G01  22159042.570   116446553.7171   22159038.478    90737564.881  
G03  21583634.736   113422770.728    21583634.527    88381368.269  
C06  41277669.729   214943658.484                                  
C35  24954315.082   129943668.396                                  
C19  24405818.935   127087509.905                                  
R07  25928647.940                                                  
R17  25160882.881   134641018.514    25160896.965                  
R24  21183286.748   113276533.443    21183280.990    88103961.472  
R01  20910246.689   111777250.271                                  
R08  21792380.571                    21792393.912    90764577.608  
R02  24339186.840   129878539.734    24339185.049   101016651.063  
G06  26069653.152   136996951.1633   26069657.721   106750896.070  
G22  26945129.812   141597612.0682                                 
S36  39030833.422   205108412.064  
E14  21087163.083   110813794.230    21087164.690    84909272.504  
E03  29309744.339   154023749.577    29309752.932   118018231.499  
E34  25572634.072   134385103.895    25572635.144   102970403.9911 
C09                                  41762579.030   168160592.042  
G31                                  25130152.836   102903788.285  
> 2025 07 22 11 29 38.0050000  0 22                     
G17  23041365.670   121083197.438    23041361.390    94350522.821  
G02  24295405.861   127673254.515                                  
G19  23509091.627   123541110.245                                  
G01  22159369.316   116448271.688    22159365.317    90738903.545  
G03  21583844.366   113423872.838    21583844.309    88382227.031  
C06  41277580.946   214943193.407                                  
C35  24953946.811   129941751.576                                  
C19  24405517.754   127085941.341                                  
R07  25929466.549                                                  
R17  25160172.051   134637215.486    25160187.464                  
R24  21182970.610   113274844.094    21182965.044    88102647.561  
R01  20910053.325   111776216.742                                  
R08  21792951.422                    21792958.862                  
R02  24338534.549   129875058.387    24338532.489   101013943.360  
G06  26069099.816   136994055.7432   26069106.421   106748639.919  
G22  26945594.722   141600045.8992                                 
S36  39030894.839   205108734.120  
E14  21086695.678   110811338.577    21086697.243    84907390.922  
E03  29309203.776   154020909.896    29309212.591   118016055.636  
E34  25572417.672   134383966.525    25572418.451   102969532.497  
C09                                  41762405.373   168159892.609  
G31                                  25130000.130   102903163.155  
> 2025 07 22 11 29 39.0050000  0 22                     
G17  23041387.540   121083312.069    23041383.218    94350612.1461 
G02  24295936.028   127676039.672                                  
G19  23508752.025   123539325.513                                  
G01  22159696.277   116449990.632    22159692.363    90740242.969  
G03  21584054.320   113424975.856    21584054.298    88383086.536  
C06  41277492.213   214942729.165                                  
C35  24953578.685   129939835.671                                  
C19  24405216.730   127084373.694                                  
R07  25930288.401                                                  
R17  25159461.423   134633413.042    25159476.965                  
R24  21182654.659   113273155.919    21182649.259    88101334.514  
R01  20909860.440   111775184.514                                  
R08  21793521.349                    21793524.814                  
R02  24337882.303   129871577.880    24337880.281   101011236.306  
G06  26068545.939   136991160.8992   26068555.141   106746384.182  
G22  26946060.519   141602480.3392                                 
S36  39030956.249   205109056.723  
E14  21086228.706   110808884.868    21086230.244    84905510.782  
E03  29308663.622   154018070.788    29308672.365   118013880.225  
E34  25572201.311   134382829.877    25572202.017   102968661.564  
C09                                  41762231.802   168159193.731  
G31                                  25129847.839   102902538.938  
> 2025 07 22 11 29 40.0050000  0 23                     
G17  23041409.526   121083427.844    23041405.201    94350702.356  
G02  24296466.342   127678825.702                                  
G19  23508412.654   123537541.885                                  
G01  22160023.562   116451710.524    22160019.592    90741583.152  
G03  21584264.386   113426079.775    21584264.231    88383946.725  
C06  41277403.316   214942265.566                                  
C20  23364404.859   121664586.2921                                 
C35  24953210.846   129937920.642                                  
C19  24404915.985   127082806.929                                  
C29  23138685.371   120489206.4661                                 
R17  25158751.001   134629611.126    25158767.633                  
R24  21182339.052   113271468.878    21182333.936    88100022.376  
R01  20909667.542   111774153.537                                  
R08  21794089.968                    21794090.218                  
R02  24337230.214   129868098.191    24337228.318   101008529.879  
G06  26067996.492   136988266.5972   26068004.265   106744128.936  
G22  26946527.406   141604915.5032                                 
S36  39031017.752   205109379.893  
E14  21085762.097   110806432.978    21085763.748    84903632.070  
E03  29308123.462   154015232.278    29308132.143   118011705.263  
E34  25571985.511   134381693.924    25571985.923   102967791.171  
C09                                  41762058.404   168158495.396  
G31                                  25129696.123   102901915.582  
> 2025 07 22 11 29 41.0050000  0 23                     
G17  23041431.827   121083544.838    23041427.495    94350793.513  
G02  24296997.212   127681612.528                                  
G19  23508073.345   123535759.456                                  
G01  22160351.009   116453431.433    22160346.890    90742924.108  
G03  21584474.694   113427184.605    21584474.429    88384807.671  
C06  41277314.434   214941802.832                                  
C20  23364620.473   121665709.453                                  
C35  24952843.162   129936006.544                                  
C19  24404615.260   127081241.150                                  
C29  23138967.712   120490677.260                                  
R17  25158040.664   134625809.794    25158057.815                  
R24  21182023.606   113269783.042    21182018.658    88098711.158  
R01  20909474.947   111773123.868                                  
R08  21794659.646                    21794655.523                  
R02  24336578.200   129864619.399    24336576.515   101005824.155  
G06  26067444.981   136985372.8362   26067453.403   106741874.077  
G22  26946991.713   141607351.4462                                 
S36  39031079.359   205109703.633  
E14  21085295.976   110803983.024    21085297.503    84901754.835  
E03  29307583.448   154012394.416    29307592.054   118009530.796  
E34  25571769.418   134380558.765    25571769.926   102966921.351  
C09                                  41761885.114   168157797.609  
G31                                  25129544.236   102901293.125  
> 2025 07 22 11 29 42.0050000  0 23                     
G17  23041454.506   121083663.300    23041450.043    94350885.811  
G02  24297528.190   127684400.513                                  
G19  23507734.496   123533978.480                                  
G01  22160678.782   116455153.606    22160674.613    90744266.072  
G03  21584685.145   113428290.671    21584684.648    88385669.495  
C06  41277225.634   214941341.069                                  
C20  23364836.404   121666833.854                                  
C35  24952475.775   129934093.642                                  
C19  24404314.908   127079676.572                                  
C29  23139250.384   120492149.423                                  
R17  25157330.429   134622009.329    25157346.248                  
R24  21181708.593   113268098.704    21181703.633    88097401.118  
R01  20909282.560   111772095.745                                  
R08  21795229.408                    21795223.242                  
R02  24335926.559   129861141.812    24335924.987   101003119.357  
G06  26066892.775   136982480.0872   26066902.846   106739619.938  
G22  26947455.828   141609788.4142                                 
S36  39031141.136   205110028.238  
E14  21084830.260   110801535.243    21084831.667    84899879.257  
E03  29307043.685   154009557.447    29307052.232   118007357.027  
E34  25571553.370   134379424.594    25571554.034   102966052.320  
C09                                  41761712.116   168157100.626  
G31                                  25129392.512   102900671.822  
> 2025 07 22 11 29 43.0050000  0 24                     
G17  23041477.299   121083783.344    23041472.866    94350979.366  
G02  24298059.501   127687189.822                                  
G19  23507395.851   123532199.083                                  
G01  22161006.867   116456877.224    22161002.525    90745609.157  
G03  21584895.922   113429398.066    21584895.255    88386532.416  
C06  41277137.162   214940880.540                                  
C20  23365052.557   121667959.656                                  
C35  24952108.642   129932182.084                                  
C19  24404014.698   127078113.346                                  
C29  23139533.568   120493623.058                                  
R17  25156620.495   134618209.921    25156633.703                  
R24  21181393.752   113266415.975    21181388.930    88096092.340  
R01  20909090.485   111771069.367                                  
R08  21795799.331                                                  
R02  24335275.042   129857665.541    24335273.736   101000415.624  
G06  26066341.740   136979588.284    26066352.389   106737366.568  
G22  26947919.820   141612225.9161                                 
S36  39031203.161   205110353.878  
E36  25388242.525   133416114.5371   25388245.004                  
E14  21084365.020   110799089.806    21084366.400    84898005.482  
E03  29306503.866   154006721.534    29306512.502   118005184.077  
E34  25571337.599   134378291.635    25571338.450   102965184.197  
C09                                  41761539.235   168156404.552  
G31                                  25129241.447   102900051.722  
> 2025 07 22 11 29 44.0050000  0 24                     
G17  23041500.419   121083904.619    23041495.942    94351073.870  
G02  24298590.963   127689979.947                                  
G19  23507057.424   123530420.888                                  
G01  22161335.017   116458601.833    22161330.728    90746952.998  
G03  21585106.933   113430506.432    21585105.903    88387396.085  
C06  41277048.806   214940420.809                                  
C20  23365268.790   121669086.422                                  
C35  24951741.754   129930271.455                                  
C19  24403714.726   127076551.067                                  
C29  23139816.914   120495097.792                                  
R17  25155910.668   134614411.182    25155924.222                  
R24  21181079.099   113264734.444    21181074.455    88094784.474  
R01  20908898.728   111770044.298                                  
R08  21796367.651                                                  
R02  24334623.767   129854190.246    24334622.644   100997712.585  
G06  26065791.174   136976697.054    26065802.102   106735113.670  
G22  26948386.748   141614664.837                                  
G31  25129101.526   132054318.8781   25129090.044   102899432.498  
S36  39031265.176   205110680.101  
E36  25388471.604   133417319.044    25388474.679   102228867.0041 
E14  21083900.008   110796646.266    21083901.248    84896133.166  
E03  29305964.098   154003886.255    29305972.998   118003011.584  
E34  25571121.842   134377159.386    25571123.082   102964316.648  
C09                                  41761366.509   168155709.020  
> 2025 07 22 11 29 45.0050000  0 24                     
G17  23041523.818   121084027.130    23041519.314    94351169.320  
G02  24299122.338   127692771.018                                  
G19  23506719.279   123528643.873                                  
G01  22161663.372   116460327.496    22161659.177    90748297.664  
G03  21585317.986   113431615.742    21585317.069    88388260.482  
C06  41276960.418   214939961.875                                  
C20  23365485.170   121670214.190                                  
C35  24951374.846   129928361.784                                  
C19  24403414.960   127074989.763                                  
C29  23140100.368   120496573.631                                  
R17  25155200.893   134610613.070    25155215.529                  
R24  21180764.827   113263054.142    21180760.370    88093477.586  
R01  20908707.134   111769020.555                                  
R08  21796937.584   116721610.6713                                 
R02  24333972.575   129850715.827    24333971.764   100995010.282  
G06  26065240.835   136973806.455    26065251.807   106732861.372  
G22  26948850.805   141617104.525                                  
S36  39031327.394   205111006.956  
E36  25388700.492   133418524.365    25388704.665   102229790.583  
E14  21083435.401   110794204.678    21083436.747    84894262.335  
E03  29305424.614   154001051.632    29305433.517   118000839.613  
E34  25570906.519   134376027.944    25570907.703   102963449.685  
C09                                  41761194.041   168155014.065  
G31                                  25128939.151   102898814.265  
> 2025 07 22 11 29 46.0050000  0 24                     
G17  23041547.445   121084150.781    23041542.780    94351265.682  
G02  24299653.604   127695562.863                                  
G19  23506381.328   123526868.018                                  
G01  22161991.979   116462054.113    22161987.756    90749643.076  
G03  21585529.183   113432725.946    21585527.839    88389125.544  
C06  41276872.350   214939503.601                                  
C20  23365701.765   121671342.907                                  
C35  24951008.153   129926453.004                                  
C19  24403115.273   127073429.344                                  
C29  23140383.893   120498050.538                                  
R17  25154491.262   134606815.502    25154505.879                  
R24  21180450.869   113261375.026    21180446.424    88092171.600  
R01  20908515.863   111767998.085                                  
R08  21797508.994   116724658.7422                                 
R02  24333321.478   129847242.316    24333320.932   100992308.658  
G06  26064690.559   136970916.350    26064701.852   106730609.283  
G22  26949319.227   141619544.805                                  
S36  39031389.785   205111334.341  
E36  25388930.366   133419730.515    25388933.112   102230714.790  
E14  21082970.934   110791764.946    21082972.454    84892392.937  
E03  29304885.450   153998217.606    29304894.100   117998668.095  
E34  25570691.377   134374897.218    25570692.648   102962583.267  
C09                                  41761021.697   168154319.692  
G31                                  25128788.138   102898196.908  
> 2025 07 22 11 29 47.0050000  0 24                     
G17  23041571.145   121084275.395    23041566.452    94351362.780  
G02  24300185.062   127698355.345                                  
G19  23506043.611   123525093.061                                  
G01  22162320.650   116463781.501    22162316.450    90750989.078  
G03  21585740.614   113433836.843    21585739.005    88389991.197  
C06  41276784.329   214939045.910                                  
C20  23365918.464   121672472.318                                  
C35  24950641.690   129924544.884                                  
C19  24402815.912   127071869.648                                  
C29  23140667.593   120499528.283                                  
R17  25153781.697   134603018.319    25153795.971                  
R24  21180137.013   113259696.857    21180132.593    88090866.354  
R01  20908324.860   111766976.667                                  
R08  21798082.941   116727707.2231                                 
R02  24332670.491   129843769.420    24332670.180   100989607.526  
G06  26064140.488   136968026.725    26064151.981   106728357.634  
G22  26949786.553   141621985.644                                  
G31  25128639.398   132051890.768    25128637.655   102897580.286  
S36  39031452.121   205111662.056  
E36  25389161.040   133420937.292    25389162.754   102231639.443  
E14  21082506.879   110789326.903    21082508.374    84890524.822  
E03  29304346.159   153995383.978    29304354.921   117996496.899  
E34  25570476.287   134373766.993    25570477.585   102961717.260  
C09                                  41760849.427   168153625.678  
> 2025 07 22 11 29 48.0050000  0 25                     
G17  23041595.090   121084401.237    23041590.510    94351460.844  
G02  24300716.582   127701148.716                                  
G19  23505706.138   123523319.290                                  
G01  22162649.643   116465509.910    22162645.320    90752335.908  
S23  39397206.900   207033718.8792 
G03  21585952.269   113434948.682    21585950.046    88390857.582  
C06  41276696.460   214938589.054                                  
C20  23366135.505   121673602.742                                  
C35  24950275.505   129922637.727                                  
C19  24402516.590   127070310.916                                  
C29  23140951.595   120501007.127                                  
R17  25153072.257   134599221.702    25153086.234                  
R24  21179823.296   113258019.878    21179819.037    88089562.031  
R01  20908133.920   111765956.561                                  
R08  21798656.350   116730757.121                                  
R02  24332019.712   129840297.457    24332019.667   100986907.141  
G06  26063590.610   136965137.721    26063602.337   106726106.467  
G22  26950252.833   141624427.250                                  
G31  25128485.763   132051100.597    25128487.234   102896964.534  
S36  39031514.628   205111990.354  
E36  25389390.681   133422144.952    25389392.159   102232564.759  
E14  21082043.244   110786890.773    21082044.767    84888658.172  
E03  29303807.117   153992550.988    29303816.002   117994326.159  
E34  25570261.479   134372637.523    25570262.760   102960851.821  
C09                                  41760677.207   168152932.240  
> 2025 07 22 11 29 49.0050000  0 25                     
G17  23041619.191   121084528.051    23041614.715    94351559.657  
G02  24301248.265   127703942.733                                  
G19  23505368.859   123521546.478                                  
G01  22162978.797   116467239.078    22162974.466    90753683.313  
S23  39397269.693   207034049.6122 
G03  21586164.036   113436061.249    21586161.492    88391724.484  
C06  41276608.824   214938132.700                                  
C20  23366352.614   121674733.951                                  
C35  24949909.257   129920731.262                                  
C19  24402217.306   127068752.885                                  
C29  23141235.714   120502486.815                                  
R17  25152362.874   134595425.447    25152381.088                  
R24  21179509.821   113256343.849    21179505.606    88088258.458  
R01  20907943.330   111764937.550                                  
R08  21799230.734   116733807.899                                  
R02  24331369.220   129836826.149    24331369.277   100984207.203  
G06  26063040.717   136962203.0793   26063052.335   106723855.596  
G22  26950716.596   141626869.391                                  
G31  25128334.361   132050311.326    25128336.949   102896349.509  
S36  39031577.180   205112319.029  
E36  25389620.985   133423353.177    25389622.203   102233490.541  
E14  21081579.937   110784456.355    21081581.516    84886792.828  
E03  29303268.302   153989718.404    29303276.968   117992155.762  
E34  25570046.557   134371508.580    25570047.855   102959986.796  
C09                                  41760505.042   168152239.214  
> 2025 07 22 11 29 50.0050000  0 25                     
G17  23041643.583   121084655.949    23041639.102    94351659.324  
G02  24301780.145   127706737.533                                  
G19  23505031.715   123519774.742                                  
G01  22163308.140   116468969.181    22163303.781    90755031.416  
S23  39397332.535   207034380.7502 
G03  21586375.938   113437174.646    21586373.085    88392592.100  
C06  41276521.464   214937677.051                                  
C20  23366569.947   121675866.011                                  
C35  24949543.368   129918825.637                                  
C19  24401918.261   127067195.717                                  
C29  23141519.921   120503967.495                                  
R17  25151653.551   134591629.711    25151673.455                  
R24  21179196.659   113254668.931    21179192.357    88086955.757  
R01  20907752.919   111763919.720                                  
R08  21799805.283   116736859.830                                  
R02  24330718.621   129833355.591    24330719.055   100981507.879  
G06  26062491.062   136959314.7772   26062502.499   106721605.056  
G22  26951179.032   141629312.160                                  
S36  39031639.755   205112648.204  
E36  25389851.414   133424562.176    25389852.239   102234416.934  
E14  21081117.092   110782023.718    21081118.674    84884928.863  
E03  29302729.203   153986886.378    29302738.041   117989985.770  
E34  25569831.780   134370380.309    25569833.154   102959122.266  
C09                                  41760333.031   168151546.674  
G31                                  25128187.101   102895735.319  
> 2025 07 22 11 29 51.0050000  0 25                     
G17  23041668.183   121084785.300    23041663.583    94351760.111  
G02  24302312.306   127709533.404                                  
G19  23504694.831   123518004.428                                  
G01  22163637.636   116470700.496    22163633.174    90756380.509  
S23  39397395.632   207034712.2653 
G03  21586587.978   113438289.214    21586584.952    88393460.549  
C06  41276434.207   214937222.409                                  
C20  23366787.574   121676999.262                                  
C35  24949177.616   129916921.157                                  
C19  24401619.384   127065639.713                                  
C29  23141804.531   120505449.509                                  
R17  25150944.441   134587834.832    25150964.352                  
R24  21178883.675   113252995.486    21178879.445    88085654.189  
R01  20907562.901   111762903.479                                  
R08  21800376.551   116739912.909                                  
R02  24330068.489   129829886.150    24330068.896   100978809.469  
G06  26061941.242   136956427.4462   26061952.638   106719355.165  
G22  26951644.376   141631755.922                                  
S36  39031702.597   205112978.154  
E36  25390081.818   133425772.239    25390082.638   102235344.108  
E14  21080654.784   110779593.244    21080656.073    84883066.548  
E03  29302190.357   153984055.191    29302199.282   117987816.427  
E34  25569617.352   134369252.997    25569618.620   102958258.500  
C09                                  41760161.200   168150854.860  
G31                                  25128037.376   102895122.303  
> 2025 07 22 11 29 52.0050000  0 25                     
G17  23041693.161   121084916.170    23041688.496    94351862.106  
G02  24302844.658   127712330.488                                  
G19  23504358.358   123516235.611                                  
G01  22163967.310   116472433.150    22163962.881    90757730.600  
S23  39397458.978   207035045.2432 
G03  21586800.380   113439405.022    21586796.795    88394330.003  
C06  41276347.218   214936768.828                                  
C20  23367005.379   121678133.825                                  
C35  24948812.011   129915017.938                                  
C19  24401320.607   127064084.971                                  
C29  23142089.328   120506932.905                                  
R17  25150235.580   134584040.897    25150255.604                  
R24  21178570.997   113251323.576    21178566.975    88084353.828  
R01  20907373.134   111761888.842                                  
R08  21800946.047   116742967.459                                  
R02  24329418.441   129826417.984    24329419.104   100976111.983  
G06  26061391.991   136953541.0682   26061402.961   106717106.089  
G22  26952108.697   141634200.819                                  
S36  39031765.700   205113309.018  
E36  25390312.411   133426983.464    25390313.243   102236272.220  
E14  21080192.738   110777164.989    21080194.095    84881205.951  
E03  29301651.929   153981224.974    29301660.664   117985647.828  
E34  25569403.150   134368126.778    25569404.376   102957395.560  
C09                                  41759989.546   168150163.927  
G31                                  25127888.020   102894510.356  
> 2025 07 22 11 29 53.0050000  0 25                     
G17  23041718.280   121085048.246    23041713.618    94351965.005  
G02  24303377.214   127715128.402                                  
G19  23504022.056   123514467.982                                  
G01  22164297.322   116474166.813    22164292.883    90759081.508  
S23  39397522.469   207035378.8192 
G03  21587012.823   113440521.800    21587009.003    88395200.222  
C06  41276260.297   214936316.028                                  
C20  23367223.504   121679269.348                                  
C35  24948446.635   129913115.642                                  
C19  24401022.341   127062531.187                                  
C29  23142374.459   120508417.397                                  
R17  25149526.717   134580247.562    25149548.366                  
R24  21178258.578   113249652.849    21178254.557    88083054.355  
R01  20907183.672   111760875.541                                  
R08  21801518.034   116746023.025    21801481.631                  
R02  24328768.547   129822950.695    24328769.467   100973415.220  
G06  26060842.838   136950655.2142   26060853.382   106714857.385  
G22  26952576.126   141636646.356                                  
S36  39031828.806   205113640.481  
E36  25390543.227   133428195.550    25390543.854   102237200.946  
E14  21079730.840   110774738.674    21079732.288    84879346.809  
E03  29301113.452   153978395.388    29301122.135   117983479.714  
E34  25569189.110   134367001.329    25569190.057   102956533.196  
C09                                  41759818.135   168149473.540  
G31                                  25127738.654   102893899.341  
> 2025 07 22 11 29 54.0050000  0 25                     
G17  23041743.718   121085181.645    23041739.046    94352068.939  
G02  24303909.878   127717927.333                                  
G19  23503686.043   123512701.647                                  
G01  22164627.437   116475901.581    22164623.041    90760433.297  
S23  39397585.997   207035713.0752 
G03  21587225.558   113441639.621    21587221.618    88396071.281  
C06  41276173.585   214935864.129                                  
C20  23367441.874   121680405.985                                  
C35  24948081.504   129911214.394                                  
C19  24400724.141   127060978.461                                  
C29  23142659.805   120509903.110                                  
R17  25148817.921   134576454.912    25148842.473                  
R24  21177946.326   113247983.403    21177942.487    88081755.879  
R01  20906994.448   111759863.664                                  
R08  21802088.362   116749079.723    21802054.112                  
R02  24328118.814   129819484.467    24328119.978   100970719.277  
G06  26060293.777   136947770.1372   26060303.500                  
G22  26953042.268   141639092.812                                  
S36  39031892.023   205113972.660  
E36  25390774.222   133429408.626    25390774.746   102238130.442  
E14  21079269.454   110772314.375    21079270.942    84877489.238  
E03  29300575.183   153975566.566    29300583.791   117981312.179  
E34  25568975.122   134365876.725    25568976.047   102955671.503  
C09                                  41759646.888   168148783.793  
G31                                  25127589.521   102893289.361  
> 2025 07 22 11 29 55.0050000  0 25                     
G17  23041769.419   121085316.493    23041764.738    94352174.043  
G02  24304442.780   127720727.364                                  
G19  23503350.172   123510936.756                                  
G01  22164957.786   116477637.661    22164953.470    90761786.063  
S23  39397649.590   207036048.1572 
G03  21587438.427   113442758.628    21587434.198    88396943.237  
C06  41276087.252   214935413.296                                  
C20  23367660.380   121681543.868                                  
C35  24947716.628   129909314.343                                  
C19  24400426.103   127059426.934                                  
C29  23142945.392   120511390.146                                  
R17  25148109.401   134572663.185    25148133.766                  
R24  21177634.460   113246315.447    21177630.571    88080458.608  
R01  20906805.428   111758853.316                                  
R08  21802658.679   116752137.707    21802627.144                  
R02  24327469.342   129816019.387    24327470.768   100968024.212  
G06  26059744.561   136944885.984    26059752.253                  
G22  26953508.708   141641540.384                                  
S36  39031955.509   205114305.733  
E36  25391005.156   133430622.782    25391005.768   102239060.773  
E14  21078808.871   110769892.243    21078810.016    84875633.321  
E03  29300037.015   153972738.635    29300045.574   117979145.339  
E34  25568761.331   134364753.137    25568762.259   102954810.583  
C09                                  41759475.859   168148094.818  
G31                                  25127440.680   102892680.439  
> 2025 07 22 11 29 56.0050000  0 25                     
G17  23041795.484   121085452.947    23041790.761    94352280.361  
G02  24304975.855   127723528.819                                  
G19  23503014.603   123509173.442                                  
G01  22165288.412   116479375.127    22165284.079    90763139.925  
S23  39397713.638   207036384.294  
G03  21587651.620   113443878.979    21587647.319    88397816.233  
C06  41276000.703   214934963.598                                  
C20  23367879.092   121682683.091                                  
C35  24947352.004   129907415.612                                  
C19  24400128.279   127057876.746                                  
C29  23143231.213   120512878.674                                  
R17  25147401.219   134568872.457    25147427.188                  
R24  21177322.948   113244649.119    21177318.975    88079162.572  
R01  20906616.778   111757844.731                                  
R08  21803228.991   116755197.187    21803200.562                  
R02  24326820.131   129812555.582    24326821.720   100965330.148  
G06  26059195.634   136942002.702    26059200.570                  
G22  26953972.339   141643988.931                                  
G31  25127290.122   132044800.6971   25127292.023   102892072.749  
S36  39032019.053   205114639.808  
E36  25391236.504   133431838.219    25391237.015   102239992.072  
E14  21078348.336   110767472.436    21078349.590    84873779.191  
E03  29299499.283   153969911.740    29299507.739   117976979.259  
E34  25568547.687   134363630.736    25568548.770   102953950.537  
C09                                  41759304.987   168147406.748  
> 2025 07 22 11 29 57.0050000  0 26                     
G17  23041821.885   121085591.221    23041816.968    94352388.111  
G02  24305509.221   127726331.552                                  
G19  23502679.380   123507411.927                                  
G01  22165619.295   116481114.215    22165615.021    90764495.050  
S23  39397777.905   207036721.628  
G03  21587865.103   113445000.881    21587860.607    88398690.426  
C06  41275914.777   214934515.359                                  
C20  23368098.111   121683823.941                                  
C35  24946987.708   129905518.418                                  
C19  24399830.745   127056328.117                                  
C29  23143517.429   120514368.904                                  
R17  25146693.018   134565082.978    25146720.658                  
R24  21177011.734   113242984.644    21177007.742    88077867.993  
R01  20906428.349   111756838.031                                  
R08  21803800.819   116758258.427    21803774.550                  
R02  24326171.229   129809093.329    24326172.852   100962637.284  
G06  26058646.872   136939120.698    26058650.064                  
G22  26954434.285   141646438.975                                  
G31  25127142.054   132044022.678    25127143.971   102891466.476  
S36  39032082.944   205114975.092  
E36  25391467.870   133433055.116    25391468.722   102240924.490  
E14  21077888.494   110765055.158    21077889.437    84871926.995  
E03  29298961.470   153967086.100    29298970.009   117974814.195  
E34  25568334.754   134362509.675    25568335.393   102953091.555  
E05  24152749.884   126923556.9331                                 
C09                                  41759134.328   168146719.724  
> 2025 07 22 11 29 58.0050000  0 26                     
G17  23041848.482   121085730.781    23041843.495    94352496.845  
G02  24306042.945   127729135.330                                  
G19  23502344.356   123505651.673                                  
G01  22165950.462   116482854.367    22165946.184    90765851.040  
S23  39397842.223   207037059.605  
G03  21588078.832   113446123.820    21588074.196    88399565.441  
C06  41275828.825   214934067.894                                  
C20  23368317.404   121684965.800                                  
C35  24946623.636   129903622.241                                  
C19  24399533.571   127054780.519                                  
C29  23143803.664   120515860.302                                  
R17  25145985.094   134561294.151    25146013.849                  
R24  21176700.748   113241321.449    21176696.869    88076574.364  
R01  20906240.148   111755832.736                                  
R08  21804370.892   116761320.738    21804347.038                  
R02  24325522.541   129805632.101    24325524.321   100959945.223  
G06  26058098.293   136936239.372    26058097.327                  
G22  26954902.328   141648889.846                                  
G31  25126994.313   132043245.815    25126995.965   102890861.166  
S36  39032146.949   205115310.999  
E36  25391699.586   133434272.920    25391700.535   102241857.616  
E14  21077429.032   110762639.888    21077429.989    84870076.318  
E03  29298423.906   153964261.174    29298432.368   117972649.626  
E34  25568121.538   134361389.472    25568122.198   102952233.207  
E05  24152444.435   126921958.299                                  
C09                                  41758963.877   168146033.327  
> 2025 07 22 11 29 59.0050000  0 26                     
G17  23041875.260   121085871.331    23041870.266    94352606.352  
G02  24306576.699   127731939.773                                  
G19  23502009.514   123503892.397                                  
G01  22166281.632   116484595.328    22166277.500    90767207.623  
S23  39397906.651   207037398.021  
G03  21588292.629   113447247.440    21588288.187    88400441.006  
C06  41275743.201   214933621.011                                  
C20  23368536.843   121686108.433                                  
C35  24946259.496   129901726.768                                  
C19  24399236.445   127053233.643                                  
C29  23144090.347   120517352.550                                  
R17  25145277.184   134557505.720    25145306.476                  
R24  21176389.825   113239659.200    21176386.117    88075281.522  
R01  20906052.130   111754828.477                                  
R08  21804941.340   116764383.991    21804918.601                  
R02  24324873.931   129802171.543    24324875.969   100957253.659  
G06  26057549.730   136933358.388    26057546.442                  
G22  26955374.607   141651341.129                                  
S36  39032210.943   205115647.283  
E36  25391931.576   133435491.348    25391932.565   102242791.222  
E14  21076969.875   110760226.298    21076970.616    84868226.935  
E03  29297886.543   153961436.648    29297894.877   117970485.394  
E34  25567908.528   134360269.771    25567909.172   102951375.270  
E05  24152140.395   126920360.381                                  
C09                                  41758793.520   168145347.309  
G31                                  25126848.287   102890256.587  
> 2025 07 22 11 30 00.0050000  0 27                     
G17  23041902.323   121086013.127    23041897.275    94352716.857  
G02  24307111.042   127734745.106                                  
G19  23501674.977   123502134.344                                  
G01  22166613.015   116486337.340    22166609.029    90768565.031  
S23  39397971.146   207037737.067  
G03  21588506.717   113448372.072    21588502.176    88401317.351  
C06  41275657.600   214933175.006                                  
C20  23368756.601   121687252.126                                  
C35  24945895.453   129899832.285                                  
C19  24398939.470   127051687.764                                  
C29  23144377.248   120518845.963                                  
R07  25947771.901                                                  
R17  25144569.355   134553717.954    25144598.517                  
R24  21176079.254   113237998.208    21176075.528    88073989.614  
R01  20905864.184   111753825.601                                  
R08  21805513.334   116767448.330    21805492.117                  
R02  24324225.467   129798711.930    24324227.814   100954562.881  
G06  26057001.639   136930478.131    26056996.825                  
G22  26955841.969   141653793.330                                  
S36  39032275.134   205115984.233  
E36  25392163.709   133436710.729    25392164.484   102243725.533  
E14  21076511.013   110757814.709    21076511.647    84866379.090  
E03  29297349.235   153958612.856    29297357.479   117968321.709  
E34  25567695.531   134359150.935    25567696.247   102950517.959  
E05  24151837.249   126918763.527                                  
C09                                  41758623.287   168144661.923  
G31                                  25126700.954   102889652.935  
> 2025 07 22 11 30 01.0050000  0 27                     
G17  23041929.618   121086156.244    23041924.519    94352828.382  
G02  24307645.359   127737551.386                                  
G19  23501340.719   123500377.585                                  
G01  22166944.533   116488080.486    22166940.781    90769923.331  
S23  39398035.791   207038076.835  
G03  21588720.891   113449497.769    21588716.603    88402194.488  
C06  41275572.153   214932729.861                                  
C20  23368976.454   121688396.901                                  
C35  24945531.783   129897938.843                                  
C19  24398642.693   127050142.957                                  
C29  23144664.102   120520340.561                                  
R07  25948586.757                                                  
R17  25143861.719   134549930.936    25143891.452                  
R24  21175768.924   113236338.543    21175765.307    88072698.763  
R01  20905676.767   111752824.137                                  
R08  21806085.377   116770513.776    21806064.865                  
R02  24323577.184   129795253.315    24323579.721   100951872.845  
G06  26056453.301   136927598.555    26056447.790                  
G22  26956312.122   141656246.278                                  
G31  25126552.269   132040922.9361   25126553.490   102889050.352  
S36  39032339.371   205116321.832  
E36  25392395.819   133437931.032    25392396.685   102244660.587  
E14  21076052.558   110755405.111    21076053.114    84864532.783  
E03  29296811.908   153955789.770    29296820.057   117966158.583  
E34  25567482.579   134358032.920    25567483.509   102949661.303  
E05  24151533.089   126917167.728                                  
C09                                  41758453.284   168143977.188  
> 2025 07 22 11 30 02.0050000  0 27                     
G17  23041957.040   121086300.518    23041951.880    94352940.809  
G02  24308179.672   127740358.548                                  
G19  23501006.679   123498621.982                                  
G01  22167276.300   116489824.618    22167272.649    90771282.385  
S23  39398100.466   207038417.197  
G03  21588935.212   113450624.360    21588930.906    88403072.361  
C06  41275486.772   214932285.453                                  
C20  23369196.623   121689542.605                                  
C35  24945168.189   129896046.308                                  
C19  24398346.227   127048599.054                                  
C29  23144951.307   120521836.214                                  
R07  25949410.335                                                  
R17  25143154.055   134546144.505    25143184.102                  
R24  21175458.666   113234680.047    21175455.218    88071408.847  
R01  20905489.310   111751823.971                                  
R08  21806657.778   116773580.246    21806638.961    90823880.4583 
R02  24322929.132   129791795.555    24322931.870   100949183.486  
G06  26055905.254   136924719.514    26055898.716                  
G22  26956780.117   141658699.958                                  
S36  39032403.757   205116659.967  
E36  25392628.170   133439152.141    25392629.015   102245596.228  
E14  21075594.372   110752997.404    21075594.910    84862687.930  
E03  29296274.921   153952967.299    29296282.913   117963995.912  
E34  25567270.007   134356915.640    25567270.817   102948805.209  
E05  24151229.252   126915572.851                                  
C09                                  41758283.417   168143293.018  
G31                                  25126406.360   102888448.604  
> 2025 07 22 11 30 03.0050000  0 27                     
G17  23041984.746   121086445.952    23041979.580    94353054.128  
G02  24308714.067   127743166.567                                  
G19  23500672.834   123496867.495                                  
G01  22167608.387   116491569.675    22167604.736    90772642.197  
S23  39398165.198   207038758.008  
G03  21589149.708   113451751.831    21589145.575    88403950.884  
C06  41275401.578   214931841.763                                  
C20  23369416.837   121690689.235                                  
C35  24944804.973   129894154.640                                  
C19  24398049.775   127047056.042                                  
C29  23145238.780   120523332.896                                  
R07  25950237.300                                                  
R17  25142446.583   134542358.622    25142478.213                  
R24  21175148.555   113233022.738    21175145.274    88070119.827  
R01  20905302.153   111750824.998                                  
R08  21807230.265   116776647.728    21807214.947    90826265.8001 
R02  24322281.211   129788338.658    24322284.114   100946494.821  
G06  26055357.553   136921841.078    26055350.682                  
G22  26957249.428   141661154.407                                  
S36  39032468.285   205116998.670  
E36  25392860.759   133440374.054    25392861.583   102246532.517  
E14  21075136.549   110750591.565    21075137.261    84860844.491  
E03  29295737.998   153950145.401    29295746.050   117961833.707  
E34  25567057.550   134355799.066    25567058.321   102947949.649  
E05  24150925.508   126913978.891                                  
C09                                  41758113.630   168142609.380  
G31                                  25126259.687   102887847.711  
> 2025 07 22 11 30 04.0050000  0 28                     
G17  23042012.676   121086592.368    23042007.449    94353168.187  
G02  24309248.277   127745975.179                                  
G19  23500339.221   123495113.964                                  
G01  22167940.473   116493315.521    22167936.868    90774002.587  
S23  39398230.046   207039099.258  
G03  21589364.504   113452880.008    21589360.366    88404829.994  
C06  41275316.435   214931398.671                                  
C20  23369637.264   121691836.592                                  
C35  24944441.911   129892263.663                                  
C19  24397753.536   127045513.753                                  
C30  26319363.348   137051830.8771                                 
C29  23145526.276   120524830.449                                  
R07  25951061.928                                                  
R17  25141739.158   134538573.066    25141771.514                  
R24  21174838.845   113231366.365    21174835.635    88068831.523  
R01  20905115.306   111749827.163                                  
R08  21807803.272   116779715.952    21807788.127    90828652.235  
R02  24321633.469   129784882.463    24321636.433   100943806.661  
G06  26054809.599   136918962.976    26054801.809                  
G22  26957716.806   141663609.396                                  
S36  39032532.949   205117337.700  
E36  25393093.318   133441596.584    25393094.174   102247469.245  
C09  41757948.501   217444595.2483   41757943.985   168141926.114  
E14  21074679.168   110748187.419    21074679.716    84859002.350  
E03  29295200.998   153947323.924    29295209.095   117959671.789  
E34  25566845.231   134354683.008    25566845.892   102947094.482  
E05  24150622.350   126912385.660                                  
G31                                  25126112.953   102887247.603  
> 2025 07 22 11 30 05.0050000  0 28                     
G17  23042040.790   121086739.842    23042035.532    94353283.134  
G02  24309782.857   127748784.553                                  
G19  23500005.804   123493361.487                                  
G01  22168272.695   116495062.246    22168269.272    90775363.658  
S23  39398295.035   207039440.932  
G03  21589579.302   113454008.970    21589575.287    88405709.697  
C06  41275231.405   214930956.134                                  
C20  23369857.877   121692984.828                                  
C35  24944079.019   129890373.498                                  
C19  24397457.433   127043972.275                                  
C30  26320048.187   137055396.435                                  
C29  23145813.986   120526328.944                                  
R07  25951887.321                                                  
R17  25141031.937   134534787.981    25141063.917                  
R24  21174529.262   113229711.040    21174526.109    88067544.054  
R01  20904928.694   111748830.479                                  
R08  21808376.309   116782785.189    21808361.836    90831039.365  
R02  24320985.810   129781426.973    24320988.922   100941119.064  
G06  26054262.119   136916085.365    26054254.403                  
G22  26958185.887   141666064.896                                  
S36  39032597.629   205117677.193  
E36  25393326.133   133442819.813    25393326.818   102248406.555  
C09  41757780.303   217443712.2322   41757774.366   168141243.301  
E14  21074222.094   110745785.037    21074222.616    84857161.566  
E03  29294664.172   153944502.927    29294672.375   117957510.268  
E34  25566633.137   134353567.564    25566633.614   102946239.814  
E05  24150319.234   126910793.251                                  
G31                                  25125966.447   102886648.232  
> 2025 07 22 11 30 06.0050000  0 27                     
G17  23042069.088   121086888.676    23042063.878    94353399.090  
G02  24310317.403   127751594.895                                  
G19  23499672.625   123491610.333                                  
G01  22168605.366   116496810.135    22168601.857    90776725.637  
S23  39398360.086   207039783.354  
G03  21589794.279   113455139.047    21589790.582    88406590.276  
C06  41275146.526   214930514.599                                  
C20  23370078.625   121694134.169                                  
C35  24943716.151   129888484.406                                  
C19  24397161.509   127042431.876                                  
C30  26320732.902   137058962.898                                  
C29  23146101.995   120527828.684                                  
R17  25140324.812   134531003.667    25140358.142                  
R24  21174219.952   113228057.027    21174216.706    88066257.603  
R01  20904742.363   111747835.277                                  
R08  21808949.433   116785855.717    21808936.239    90833427.570  
R02  24320338.415   129777972.572    24320341.625   100938432.299  
G06  26053714.795   136913208.441    26053706.893                  
G22  26958652.304   141668521.355                                  
S36  39032662.430   205118017.369  
E36  25393559.204   133444044.080    25393559.848   102249344.612  
C09  41757611.598   217442830.1662   41757604.947   168140561.218  
E14  21073765.494   110743384.741    21073765.784    84855322.380  
E03  29294127.430   153941682.742    29294135.749   117955349.350  
E34  25566420.952   134352453.035    25566421.578   102945385.820  
E05  24150016.249   126909201.980                                  
G31                                  25125820.306   102886049.898  
> 2025 07 22 11 30 07.0050000  0 27                     
G17  23042097.662   121087038.705    23042092.410    94353515.997  
G02  24310852.286   127754406.146                                  
G19  23499339.664   123489860.366                                  
G01  22168938.038   116498559.024    22168934.763    90778088.420  
S23  39398425.338   207040126.368  
G03  21590009.483   113456270.065    21590006.021    88407471.581  
C06  41275061.991   214930073.806                                  
C20  23370299.484   121695284.491                                  
C35  24943353.500   129886596.258                                  
C19  24396865.830   127040892.450                                  
C30  26321417.965   137062530.116                                  
C29  23146390.235   120529329.516                                  
R17  25139617.723   134527220.006    25139649.033                  
R24  21173910.929   113226404.272    21173907.595    88064972.125  
R01  20904556.326   111746841.385                                  
R08  21809523.030   116788927.245    21809510.136    90835816.547  
R02  24319691.115   129774519.076    24319694.536   100935746.283  
G06  26053167.354   136910332.217    26053159.845                  
G22  26959121.806   141670978.590                                  
S36  39032727.266   205118358.153  
E36  25393792.279   133445269.188    25393793.002   102250283.330  
C09  41757444.663   217441948.7812   41757435.707   168139879.696  
E14  21073309.454   110740986.369    21073309.399    84853484.665  
E03  29293591.058   153938863.187    29293599.208   117953188.932  
E34  25566208.928   134351339.275    25566209.634   102944532.419  
E05  24149713.524   126907611.656                                  
G31                                  25125674.585   102885452.541  
> 2025 07 22 11 30 08.0050000  0 28                     
G17  23042126.512   121087189.766    23042121.168    94353633.711  
G02  24311387.074   127757218.038                                  
G19  23499006.710   123488111.407                                  
G01  22169270.926   116500308.758    22169267.718    90779451.836  
S23  39398490.540   207040469.837  
G03  21590224.815   113457401.845    21590221.670    88408353.459  
C06  41274977.618   214929633.635                                  
C20  23370520.572   121696435.635                                  
C35  24942990.941   129884708.861                                  
C19  24396570.333   127039353.789                                  
C30  26322103.244   137066097.946                                  
C29  23146678.561   120530831.244                                  
R17  25138910.756   134523436.777    25138940.613                  
R24  21173602.029   113224752.579    21173598.659    88063687.493  
R01  20904370.472   111745848.611                                  
R08  21810096.618   116791999.630    21810083.483    90838206.182  
R02  24319044.143   129771066.345    24319047.475   100933060.824  
G06  26052620.238   136907456.323    26052612.687                  
G22  26959587.022   141673436.352                                  
S36  39032792.228   205118699.329  
E36  25394025.560   133446494.981    25394026.172   102251222.565  
C09  41757274.427   217441067.9942   41757266.558   168139198.603  
R22  25420159.857   135694538.9473                                 
E14  21072853.365   110738589.722    21072853.398    84851648.288  
E03  29293054.436   153936044.095    29293062.657   117951028.849  
E34  25565997.201   134350226.092    25565997.829   102943679.456  
E05  24149411.067   126906022.151                                  
G31                                  25125529.020   102884855.917  
> 2025 07 22 11 30 09.0050000  0 28                     
G17  23042155.472   121087341.814    23042150.098    94353752.188  
G02  24311921.798   127760030.600                                  
G19  23498674.146   123486363.403                                  
G01  22169603.966   116502059.245    22169600.811    90780815.877  
S23  39398556.008   207040813.600  
G03  21590440.302   113458534.313    21590437.441    88409235.944  
C06  41274893.268   214929194.037                                  
C20  23370741.797   121697587.513                                  
C35  24942628.539   129882822.169                                  
C19  24396274.942   127037815.851                                  
C30  26322788.487   137069666.283                                  
C29  23146967.278   120532333.854                                  
R17  25138203.961   134519653.944    25138232.331                  
R24  21173293.306   113223101.906    21173289.986    88062403.636  
R01  20904184.798   111744856.926                                  
R08  21810670.460   116795072.811    21810658.612    90840596.432  
R02  24318397.171   129767614.309    24318400.512   100930375.913  
G06  26052073.394   136904580.880    26052065.893                  
G22  26960054.036   141675894.614                                  
S36  39032857.173   205119040.869  
E36  25394259.053   133447721.378    25394259.564   102252162.267  
C09  41757103.944   217440187.7512   41757097.505   168138517.918  
R22  25420985.161   135698880.8782                                 
E14  21072397.511   110736194.797    21072397.663    84849813.207  
E03  29292518.080   153933225.437    29292526.297   117948869.082  
E34  25565785.485   134349113.436    25565786.213   102942826.900  
E05  24149108.778   126904433.372                                  
G31                                  25125383.111   102884260.040  
> 2025 07 22 11 30 10.0050000  0 28                     
G17  23042184.722   121087495.377    23042179.387    94353871.859  
G02  24312457.119   127762844.422                                  
G19  23498341.756   123484616.919                                  
G01  22169937.316   116503811.106    22169934.180    90782180.942  
S23  39398621.597   207041158.298  
G03  21590655.998   113459668.076    21590653.548    88410119.359  
C06  41274809.052   214928755.510                                  
C20  23370963.260   121698740.683                                  
C35  24942266.408   129880936.733                                  
C19  24395979.871   127036279.189                                  
C30  26323473.935   137073235.705                                  
C29  23147256.115   120533837.861                                  
R17  25137497.184   134515872.028    25137527.343                  
R24  21172984.708   113221452.729    21172981.531    88061120.939  
R01  20903999.462   111743866.860                                  
R08  21811244.599   116798147.371    21811233.314    90842987.774  
R02  24317750.436   129764163.512    24317753.945   100927691.960  
G06  26051526.845   136901706.348    26051520.340   106676620.4051 
G22  26960519.001   141678353.974                                  
S36  39032922.459   205119383.331  
E36  25394492.631   133448948.960    25394493.246   102253102.885  
C09  41756935.303   217439308.534    41756928.662   168137838.058  
R22  25421801.526   135703223.8862                                 
E14  21071942.132   110733802.080    21071942.302    84847979.841  
E03  29291981.782   153930407.697    29291990.193   117946710.071  
E34  25565573.901   134348001.856    25565574.551   102941975.173  
E05  24148806.435   126902845.869                                  
G31                                  25125237.840   102883665.269  
> 2025 07 22 11 30 11.0050000  0 28                     
G17  23042214.226   121087650.635    23042208.914    94353992.832  
G02  24312992.777   127765659.498                                  
G19  23498009.749   123482872.089                                  
G01  22170270.831   116505564.454    22170267.769    90783547.183  
S23  39398687.478   207041504.064  
G03  21590872.020   113460803.230    21590869.900    88411003.905  
C06  41274725.176   214928318.244                                  
C20  23371185.114   121699895.312                                  
C35  24941904.627   129879052.718                                  
C19  24395685.134   127034743.929                                  
C30  26324159.578   137076806.362                                  
C29  23147545.347   120535343.447                                  
R17  25136790.834   134512091.192    25136819.966                  
R24  21172676.532   113219805.188    21172673.237    88059839.529  
R01  20903814.669   111742878.603                                  
R08  21811818.903   116801223.525    21811807.062    90845380.313  
R02  24317103.975   129760714.079    24317107.557   100925009.086  
G06  26050980.311   136898832.869    26050974.939   106674381.389  
G22  26960986.269   141680814.539                                  
S36  39032987.882   205119726.897  
E36  25394726.464   133450177.861    25394727.038   102254044.508  
C09  41756766.372   217438430.473    41756760.023   168137159.143  
R22  25422613.880   135707568.1642                                 
E14  21071487.533   110731411.791    21071487.429    84846148.317  
E03  29291445.872   153927591.104    29291454.348   117944551.897  
E34  25565362.703   134346891.528    25565363.390   102941124.392  
E05  24148504.549   126901259.833                                  
G31                                  25125092.930   102883071.857  
> 2025 07 22 11 30 12.0050000  0 29                     
G17  23042243.956   121087807.525    23042238.878    94354115.086  
G02  24313528.761   127768475.963                                  
G19  23497677.907   123481128.874                                  
G01  22170604.751   116507319.236    22170601.691    90784914.532  
S23  39398753.534   207041850.900  
G03  21591088.298   113461939.762    21591086.523    88411889.498  
C06  41274641.728   214927882.219                                  
C20  23371407.239   121701051.357                                  
C35  24941543.063   129877170.050                                  
C19  24395390.536   127033210.071                                  
C30  26324845.439   137080378.181                                  
C29  23147834.771   120536850.529                                  
R17  25136084.597   134508311.395    25136112.361                  
R24  21172368.658   113218159.267    21172365.372    88058559.374  
R01  20903630.199   111741892.098                                  
R08  21812393.350   116804301.200    21812382.920    90847774.057  
R02  24316457.858   129757265.969    24316461.347   100922327.202  
G06  26050433.885   136895960.455    26050430.206   106672143.149  
G22  26961458.998   141683276.378                                  
S36  39033053.605   205120071.496  
E36  25394960.801   133451408.081    25394961.075   102254987.123  
C09  41756598.190   217437553.666    41756591.719   168136481.107  
R22  25423426.365   135711913.6582                                 
R23  21842657.913   116843490.4123                                 
E14  21071032.882   110729023.870    21071033.164    84844318.605  
E03  29290910.014   153924775.592    29290918.549   117942394.559  
E34  25565151.682   134345782.399    25565152.273   102940274.528  
E05  24148202.866   126899675.203                                  
G31                                  25124948.521   102882479.628  
> 2025 07 22 11 30 13.0050000  0 29                     
G17  23042274.011   121087965.900    23042268.993    94354238.485  
G02  24314064.949   127771293.514                                  
G19  23497346.477   123479387.125                                  
G01  22170938.904   116509075.278    22170935.944    90786282.916  
S23  39398819.783   207042198.628  
G03  21591304.844   113463077.524    21591303.814    88412776.065  
C06  41274558.069   214927447.219                                  
C20  23371629.507   121702208.669                                  
C35  24941181.720   129875288.596                                  
C19  24395096.073   127031677.430                                  
C30  26325531.534   137083951.061                                  
C29  23148124.496   120538358.993                                  
R17  25135378.361   134504532.502    25135403.939                  
R24  21172061.218   113216514.876    21172057.950    88057280.392  
R01  20903446.008   111740907.158                                  
R08  21812968.106   116807380.194    21812958.236    90850168.804  
R02  24315811.830   129753819.012    24315815.389   100919646.279  
G06  26049887.816   136893088.869    26049890.374   106669905.565  
G22  26961930.664   141685739.192                                  
S36  39033119.301   205120416.986  
E36  25395195.121   133452639.402    25395195.375   102255930.620  
C09  41756430.108   217436677.828    41756423.541   168135803.889  
R22  25424231.743   135716259.7911                                 
R23  21843191.806   116846401.4452                                 
E14  21070578.807   110726638.124    21070579.123    84842490.558  
E03  29290374.471   153921960.962    29290383.116   117940237.909  
E34  25564940.881   134344674.298    25564941.436   102939425.467  
E05  24147901.578   126898091.807                                  
G31                                  25124804.105   102881888.611  
> 2025 07 22 11 30 14.0050000  0 29                     
G17  23042304.439   121088125.684    23042299.415    94354362.997  
G02  24314601.188   127774112.109                                  
G19  23497015.277   123477646.744                                  
G01  22171273.291   116510832.549    22171270.294    90787652.198  
S23  39398886.017   207042547.110  
G03  21591521.569   113464216.401    21591520.891    88413663.536  
C06  41274474.757   214927013.159                                  
C20  23371852.025   121703367.110                                  
C35  24940820.740   129873408.279                                  
C19  24394801.971   127030145.907                                  
C30  26326217.802   137087524.900                                  
C29  23148414.348   120539868.719                                  
R17  25134672.496   134500754.423    25134697.646                  
R24  21171753.969   113214871.906    21171750.887    88056002.535  
R01  20903262.262   111739923.733                                  
R08  21813543.268   116810460.465    21813535.315    90852564.641  
R02  24315166.015   129750373.145    24315169.578   100916966.177  
G06  26049342.047   136890218.165    26049346.283   106667668.651  
G22  26962399.383   141688202.928                                  
S36  39033185.195   205120763.274  
E36  25395429.706   133453871.759    25395429.987   102256874.920  
C09  41756262.102   217435802.983    41756255.525   168135127.377  
R22  25425039.795   135720607.401                                  
R23  21843733.702   116849313.9032                                 
E14  21070125.359   110724254.490    21070125.601    84840664.145  
E03  29289838.831   153919147.201    29289847.682   117938081.909  
E34  25564730.248   134343567.128    25564730.843   102938577.121  
E05  24147600.330   126896509.556                                  
G31                                  25124660.021   102881298.658  
> 2025 07 22 11 30 15.0050000  0 29                     
G17  23042335.170   121088287.009    23042330.146    94354488.702  
G02  24315137.738   127776931.977                                  
G19  23496684.438   123475907.895                                  
G01  22171607.959   116512591.175    22171604.990    90789022.519  
S23  39398952.541   207042896.519  
G03  21591738.541   113465356.553    21591738.528    88414551.985  
C06  41274391.773   214926580.237                                  
C20  23372074.771   121704526.892                                  
C35  24940459.932   129871529.209                                  
C19  24394508.140   127028615.700                                  
C30  26326904.295   137091099.785                                  
C29  23148704.609   120541379.871                                  
R17  25133966.697   134496977.294    25133992.171                  
R24  21171446.962   113213230.507    21171444.022    88054725.896  
R01  20903078.779   111738941.951                                  
R08  21814118.612   116813542.044    21814109.940    90854961.402  
R02  24314520.532   129746928.512    24314524.175   100914287.042  
G06  26048796.381   136887348.375    26048803.209   106665494.4461 
G22  26962868.423   141690667.807                                  
S36  39033251.338   205121110.621  
E36  25395664.353   133455105.324    25395664.397   102257820.095  
C09  41756094.400   217434929.163    41756087.684   168134451.695  
R22  25425852.819   135724956.074                                  
R23  21844275.578   116852227.8972                                 
E14  21069672.246   110721873.151    21069672.301    84838839.463  
E03  29289303.479   153916334.390    29289312.543   117935926.672  
E34  25564519.663   134342461.058    25564520.280   102937729.617  
E05  24147299.382   126894928.618                                  
G31                                  25124516.085   102880709.784  
> 2025 07 22 11 30 16.0050000  0 29                     
G17  23042366.136   121088449.680    23042361.051    94354615.444  
G02  24315674.367   127779752.847                                  
G19  23496353.779   123474170.366                                  
G01  22171942.832   116514350.957    22171939.883    90790393.779  
S23  39399019.214   207043246.702  
G03  21591955.709   113466497.796    21591956.048    88415441.228  
C06  41274308.900   214926148.259                                  
C20  23372297.679   121705687.790                                  
C35  24940099.230   129869651.218                                  
C19  24394214.507   127027086.576                                  
C30  26327590.895   137094675.571                                  
C29  23148995.281   120542892.261                                  
R17  25133261.089   134493200.946    25133287.472                  
R24  21171140.233   113211590.459    21171137.220    88053450.297  
R01  20902895.589   111737961.637                                  
R08  21814694.310   116816624.913    21814685.420    90857359.165  
R02  24313875.163   129743485.014    24313878.886   100911608.759  
G06  26048250.745   136884479.322    26048257.598   106663258.786  
G22  26963337.613   141693133.489                                  
S36  39033317.647   205121458.722  
E36  25395899.214   133456339.868    25395899.286   102258766.054  
C09  41755926.884   217434056.256    41755920.035   168133776.682  
R22  25426667.483   135729305.730                                  
R23  21844819.351   116855143.2852                                 
E14  21069219.335   110719493.818    21069219.516    84837016.357  
E03  29288768.392   153913522.375    29288777.567   117933772.018  
E34  25564309.349   134341355.903    25564310.098   102936882.796  
E05  24146998.592   126893348.804                                  
G31                                  25124372.406   102880122.000  
> 2025 07 22 11 30 17.0050000  0 29                     
G17  23042397.419   121088613.716    23042392.227    94354743.283  
G02  24316211.289   127782574.731                                  
G19  23496023.378   123472434.211                                  
G01  22172277.877   116516111.877    22172274.986    90791765.951  
S23  39399086.037   207043597.613  
G03  21592173.146   113467640.159    21592173.826    88416331.422  
C06  41274226.336   214925717.217                                  
C20  23372520.932   121706849.844                                  
C35  24939738.704   129867774.346                                  
C19  24393921.082   127025558.565                                  
C30  26328277.645   137098252.316                                  
C29  23149286.111   120544405.916                                  
R17  25132555.658   134489425.369    25132580.904                  
R24  21170833.800   113209951.749    21170830.746    88052175.747  
R01  20902712.601   111736982.814                                  
R08  21815270.472   116819709.007    21815260.086    90859757.864  
R02  24313230.178   129740042.630    24313233.828   100908931.349  
G06  26047705.321   136881611.037    26047711.095   106661023.776  
G22  26963806.753   141695600.193                                  
G31  25124226.771   132028702.7682   25124228.753   102879535.233  
S36  39033384.147   205121807.594  
E36  25396134.297   133457575.452    25396134.434   102259712.775  
C09  41755759.425   217433184.244    41755752.484   168133102.410  
R22  25427480.910   135733656.294    25427434.266                  
R23  21845364.468   116858059.5371                                 
E14  21068766.794   110717116.633    21068767.140    84835194.868  
E03  29288233.457   153910711.169    29288242.552   117931617.960  
E34  25564099.541   134340251.685    25564099.864   102936036.694  
E05  24146698.319   126891770.116                                  
> 2025 07 22 11 30 18.0050000  0 29                     
G17  23042428.937   121088778.953    23042423.677    94354872.044  
G02  24316748.535   127785397.532                                  
G19  23495693.187   123470699.211                                  
G01  22172613.198   116517873.857    22172610.183    90793138.893  
S23  39399152.865   207043949.169  
G03  21592390.656   113468783.424    21592391.829    88417222.283  
C06  41274143.844   214925286.950                                  
C20  23372744.334   121708012.860                                  
C35  24939378.415   129865898.381                                  
C19  24393627.935   127024031.480                                  
C30  26328964.517   137101829.829                                  
C29  23149576.987   120545920.651                                  
R17  25131850.248   134485650.385    25131874.446                  
R24  21170527.644   113208314.231    21170524.470    88050902.136  
R01  20902529.855   111736005.306                                  
R08  21815846.532   116822794.138    21815834.685    90862157.431  
R02  24312585.219   129736601.141    24312588.916   100906254.625  
G06  26047160.061   136878743.371    26047166.021   106658789.206  
G22  26964279.378   141698067.534                                  
G31  25124084.510   132027950.9792   25124085.465   102878949.408  
S36  39033450.763   205122157.046  
E36  25396369.551   133458811.882    25396369.698   102260660.162  
C09  41755592.191   217432312.966    41755585.174   168132428.696  
R22  25428296.605   135738007.659    25428252.513                  
R23  21845910.258   116860977.486                                  
E14  21068314.563   110714741.325    21068315.115    84833374.829  
E03  29287698.649   153907900.583    29287707.647   117929464.407  
E34  25563889.574   134339148.197    25563889.732   102935191.165  
E05  24146397.966   126890192.392                                  
> 2025 07 22 11 30 19.0050000  0 29                     
G17  23042460.663   121088945.560    23042455.379    94355001.871  
G02  24317285.918   127788221.350                                  
G19  23495363.222   123468965.575                                  
G01  22172948.815   116519637.025    22172945.818    90794512.784  
S23  39399219.904   207044301.476  
G03  21592608.499   113469927.835    21592610.079    88418114.000  
C06  41274061.327   214924857.625                                  
C20  23372967.910   121709177.038                                  
C35  24939018.625   129864023.537                                  
C19  24393334.922   127022505.540                                  
C30  26329651.710   137105408.240                                  
C29  23149868.149   120547436.638                                  
R17  25131145.034   134481876.223    25131170.064                  
R24  21170221.659   113206678.139    21170218.376    88049629.584  
R01  20902347.382   111735029.272                                  
R08  21816422.801   116825880.589    21816410.494    90864557.922  
R02  24311940.501   129733160.724    24311944.228   100903578.761  
G06  26046614.944   136875876.499    26046620.463   106656555.323  
G22  26964748.533   141700535.855                                  
G31  25123944.996   132027200.387    25123942.254   102878364.661  
S36  39033517.437   205122507.292  
E36  25396604.821   133460049.324    25396605.073   102261608.336  
C09  41755425.063   217431442.628    41755418.009   168131755.695  
R22  25429113.093   135742359.996    25429067.511                  
R23  21846456.064   116863896.867                                  
E14  21067862.738   110712368.138    21067863.578    84831556.413  
E03  29287164.127   153905090.832    29287173.147   117927311.507  
E34  25563679.642   134338045.652    25563679.924   102934346.368  
E05  24146098.051   126888615.820                                  
> 2025 07 22 11 30 20.0050000  0 29                     
G17  23042492.480   121089113.033    23042487.205    94355132.365  
G02  24317823.443   127791045.648                                  
G19  23495033.539   123467232.790                                  
G01  22173284.560   116521400.798    22173281.498    90795887.164  
S23  39399286.933   207044654.014  
G03  21592826.402   113471072.812    21592828.300    88419006.225  
C06  41273978.935   214924428.764                                  
C20  23373191.829   121710341.849                                  
C35  24938658.696   129862149.263                                  
C19  24393042.170   127020980.172                                  
C30  26330338.960   137108987.061                                  
C29  23150159.411   120548953.390                                  
R17  25130439.824   134478102.307    25130465.345                  
R24  21169915.762   113205042.871    21169912.644    88048357.746  
R01  20902165.002   111734054.172                                  
R08  21816999.163   116828967.616    21816986.790    90866958.989  
R02  24311295.892   129729720.820    24311299.588   100900903.295  
G06  26046069.909   136873009.838    26046074.954   106654321.550  
G22  26965220.229   141703004.582                                  
G31  25123803.141   132026450.823    25123799.728   102877780.495  
S36  39033584.154   205122857.854  
E36  25396840.359   133461287.264    25396840.795   102262556.886  
C09  41755258.037   217430572.683    41755250.985   168131082.975  
R22  25429929.512   135746712.813    25429888.146                  
R23  21847001.899   116866817.066                                  
E14  21067411.356   110709996.511    21067412.130    84829739.186  
E03  29286629.283   153902281.363    29286638.494   117925158.779  
E34  25563469.824   134336943.504    25563470.117   102933501.861  
E05  24145797.995   126887039.843                                  
> 2025 07 22 11 30 21.0050000  0 29                     
G17  23042524.474   121089280.966    23042519.266    94355263.244  
G02  24318361.010   127793870.118                                  
G19  23494703.889   123465500.437                                  
G01  22173620.217   116523164.875    22173617.238    90797261.744  
S23  39399353.846   207045006.448  
G03  21593044.346   113472217.996    21593046.493    88419898.555  
C06  41273896.634   214923999.906                                  
C20  23373415.592   121711506.879                                  
C35  24938298.856   129860275.204                                  
C19  24392749.368   127019455.051                                  
C30  26331026.212   137112565.914                                  
C29  23150450.675   120550470.479                                  
R17  25129734.513   134474328.248    25129758.892                  
R24  21169609.959   113203408.063    21169606.868    88047086.207  
R01  20901982.722   111733079.640                                  
R08  21817575.344   116832055.023    21817561.890    90869360.322  
R02  24310651.361   129726281.036    24310655.053   100898227.924  
G06  26045524.873   136870143.042    26045529.829   106652087.742  
G22  26965690.779   141705473.333                                  
G31  25123661.629   132025701.585    25123656.997   102877196.690  
S36  39033650.859   205123208.255  
E36  25397075.863   133462525.336    25397076.372   102263505.541  
C09  41755091.049   217429702.675    41755083.939   168130410.273  
R22  25430744.917   135751065.665    25430705.714                  
R23  21847547.979   116869737.737                                  
E14  21066960.112   110707626.059    21066961.015    84827922.877  
E03  29286094.737   153899471.779    29286103.647   117923005.990  
E34  25563260.100   134335841.378    25563260.372   102932657.374  
E05  24145498.079   126885464.109                                  
> 2025 07 22 11 30 22.0050000  0 29                     
G17  23042556.656   121089450.345    23042551.540    94355395.224  
G02  24318898.523   127796695.678                                  
G19  23494374.539   123463769.512                                  
G01  22173956.153   116524930.188    22173953.180    90798637.327  
S23  39399421.040   207045359.708  
G03  21593262.534   113473364.376    21593264.775    88420791.857  
C06  41273814.485   214923572.066                                  
C20  23373639.705   121712673.143                                  
C35  24937939.182   129858402.307                                  
C19  24392456.641   127017931.095                                  
C30  26331713.848   137116145.777                                  
C29  23150742.508   120551988.907                                  
R17  25129029.370   134470555.050    25129053.026                  
R24  21169304.438   113201774.704    21169301.320    88045815.812  
R01  20901800.877   111732106.681                                  
R08  21818152.093   116835143.784    21818136.994    90871762.646  
R02  24310007.006   129722842.403    24310010.712   100895553.427  
G06  26044980.083   136867277.107    26044984.817   106649854.515  
G22  26966160.698   141707942.990                                  
G31  25123521.569   132024953.731    25123514.839   102876613.991  
S36  39033717.798   205123559.497  
E36  25397311.649   133463764.488    25397312.030   102264455.020  
C09  41754924.042   217428833.744    41754917.049   168129738.338  
R22  25431562.161   135755419.491    25431523.677                  
R23  21848094.334   116872659.901                                  
E14  21066509.759   110705257.766    21066510.429    84826108.212  
E03  29285560.201   153896663.081    29285569.170   117920853.885  
E34  25563050.882   134334740.235    25563050.857   102931813.650  
E05  24145198.482   126883889.576                                  
> 2025 07 22 11 30 23.0050000  0 31                     
G17  23042589.098   121089620.919    23042583.968    94355528.130  
G02  24319436.321   127799522.107                                  
G19  23494045.341   123462039.755                                  
G01  22174292.275   116526696.481    22174289.294    90800013.668  
S23  39399488.365   207045713.529  
G03  21593480.846   113474511.658    21593483.256    88421685.817  
C06  41273732.561   214923145.085                                  
C20  23373863.935   121713840.379                                  
C35  24937579.641   129856530.335                                  
C19  24392164.066   127016408.084                                  
C30  26332401.472   137119726.364                                  
C29  23151034.408   120553508.389                                  
R17  25128324.349   134466782.449    25128350.187                  
R24  21168999.277   113200142.558    21168996.065    88044546.379  
R01  20901619.119   111731135.006                                  
R08  21818728.950   116838233.535    21818713.571    90874165.760  
R02  24309362.842   129719404.668    24309366.421   100892879.650  
G06  26044435.328   136864411.784    26044439.554   106647621.825  
G22  26966630.962   141710413.493                                  
G31  25123379.271   132024207.160    25123372.995   102876032.160  
S36  39033784.860   205123911.328  
E36  25397547.692   133465004.477    25397547.909   102265405.138  
C09  41754757.115   217427965.469    41754750.283   168129066.960  
R22  25432378.507   135759774.143    25432339.706                  
R23  21848640.858   116875583.212                                  
E14  21066059.363   110702891.415    21066060.210    84824295.014  
E03  29285025.774   153893855.013    29285034.648   117918702.245  
E34  25562841.405   134333639.860    25562841.400   102930970.503  
E05  24144899.086   126882316.007                                  
G04  22249063.368   116919617.0823                                 
G09  24449226.916   128481554.1553                                 
> 2025 07 22 11 30 24.0050000  0 31                     
G17  23042621.670   121089792.263    23042616.698    94355661.626  
G02  24319974.471   127802348.986                                  
G19  23493716.162   123460310.758                                  
G01  22174628.552   116528463.398    22174625.499    90801390.452  
S23  39399555.667   207046067.529  
G03  21593699.290   113475659.453    21593701.892    88422580.211  
C06  41273650.720   214922718.383                                  
C20  23374088.311   121715008.157                                  
C35  24937220.165   129854658.867                                  
C19  24391871.669   127014885.604                                  
C30  26333089.145   137123307.286                                  
C29  23151326.383   120555028.550                                  
R17  25127619.445   134463010.019    25127645.081                  
R24  21168694.197   113198511.174    21168691.054    88043277.498  
R01  20901437.581   111730164.175                                  
R08  21819305.838   116841323.776    21819288.261    90876569.224  
R02  24308718.781   129715967.405    24308722.461   100890206.221  
G06  26043890.523   136861546.605    26043894.667   106645389.213  
G22  26967101.168   141712884.315                                  
G31  25123235.796   132023461.251    25123231.398   102875450.932  
S36  39033851.855   205124263.355  
E36  25397783.334   133466244.872    25397783.858   102266355.585  
C09  41754590.410   217427097.539    41754583.585   168128395.817  
R22  25433195.612   135764129.073                                  
R23  21849187.679   116878507.365                                  
E14  21065609.319   110700526.544    21065610.176    84822482.980  
E03  29284491.411   153891047.154    29284500.464   117916550.805  
E34  25562632.212   134332539.771    25562632.179   102930127.612  
E05  24144599.845   126880742.966                                  
G04  22248750.789   116917974.4802                                 
G09  24448614.786   128478337.2922                                 
> 2025 07 22 11 30 25.0050000  0 31                     
G17  23042654.567   121089964.901    23042649.577    94355796.162  
G02  24320512.779   127805176.810                                  
G19  23493387.410   123458583.022                                  
G01  22174964.974   116530231.389    22174961.941    90802768.105  
S23  39399623.165   207046422.257  
G03  21593917.911   113476808.281    21593920.490    88423475.411  
C06  41273568.989   214922292.538                                  
C20  23374312.844   121716177.003                                  
C35  24936860.973   129852788.432                                  
C19  24391579.465   127013364.154                                  
C30  26333776.952   137126889.045                                  
C29  23151618.630   120556549.887                                  
R17  25126914.511   134459238.281    25126939.327                  
R24  21168389.389   113196881.060    21168386.195    88042009.673  
R01  20901256.273   111729194.740                                  
R08  21819882.984   116844415.241    21819862.030                1 
R02  24308074.723   129712531.174    24308078.495   100887533.606  
G06  26043345.729   136858682.138    26043349.903   106643157.161  
G22  26967571.680   141715355.860                                  
G31  25123093.089   132022716.565    25123089.798   102874870.691  
S36  39033919.047   205124616.133  
E36  25398019.456   133467486.225    25398020.200   102267306.753  
C09  41754423.903   217426230.464    41754417.179   168127725.320  
R22  25434013.181   135768484.913                                  
R23  21849734.733   116881432.803                                  
E14  21065159.638   110698163.685    21065160.557    84820672.479  
E03  29283957.086   153888240.021    29283966.137   117914399.871  
E34  25562423.020   134331440.582    25562423.057   102929285.349  
E05  24144300.820   126879170.982                                  
G04  22248438.369   116916333.0942                                 
G09  24448002.868   128475121.3422                                 
> 2025 07 22 11 30 26.0050000  0 31                     
G17  23042687.711   121090139.115    23042682.764    94355931.930  
G02  24321051.068   127808005.874                                  
G19  23493058.910   123456856.878                                  
G01  22175301.805   116532000.773    22175298.527    90804146.854  
S23  39399690.860   207046777.945  
G03  21594136.865   113477958.433    21594139.322    88424371.607  
C06  41273487.538   214921867.867                                  
C20  23374537.619   121717347.199                                  
C35  24936501.856   129850919.304                                  
C19  24391287.574   127011844.024                                  
C30  26334465.000   137130471.965                                  
C29  23151911.039   120558072.703                                  
R17  25126209.951   134455467.542    25126234.354                  
R24  21168084.900   113195252.581    21168081.581    88040743.038  
R01  20901075.302   111728226.970                                  
R08  21820460.446   116847508.201    21820438.128                  
R02  24307431.138   129709096.256    24307434.802   100884861.991  
G06  26042801.185   136855818.652    26042805.749   106640925.840  
G22  26968042.182   141717828.637                                  
S36  39033986.454   205124969.921  
E36  25398255.909   133468728.827    25398256.783   102268258.864  
C09  41754257.553   217425364.486    41754250.933   168127055.708  
R22  25434829.749   135772841.918                                  
R23  21850282.079   116884359.838                                  
E14  21064710.587   110695803.113    21064711.352    84818863.741  
E03  29283423.241   153885433.927    29283432.159   117912249.749  
E34  25562214.024   134330342.533    25562213.979   102928443.979  
E05  24144001.931   126877600.367                                  
G04  22248126.241   116914692.7351                                 
G09  24447391.143   128471906.1001                                 
G31                                  25122948.644   102874291.660  
> 2025 07 22 11 30 27.0050000  0 31                     
G17  23042721.067   121090314.740    23042716.132    94356068.766  
G02  24321589.947   127810836.025                                  
G19  23492730.697   123455132.085                                  
G01  22175638.823   116533771.342    22175635.458    90805526.523  
S23  39399758.706   207047134.413  
G03  21594355.949   113479109.714    21594358.227    88425268.714  
C06  41273406.193   214921444.128                                  
C20  23374762.704   121718518.556                                  
C35  24936143.088   129849051.271                                  
C19  24390995.771   127010325.025                                  
C30  26335153.323   137134055.802                                  
C29  23152203.760   120559596.765                                  
R17  25125505.457   134451697.613    25125527.985                  
R24  21167780.600   113193625.483    21167777.333    88039477.538  
R01  20900894.535   111727260.723                                  
R08  21821038.077   116850602.337    21821015.110                  
R02  24306787.573   129705662.396    24306791.355   100882191.230  
G06  26042256.882   136852955.963    26042261.628   106638695.215  
G22  26968512.748   141720302.294                                  
S36  39034053.973   205125324.483  
E36  25398492.466   133469972.435    25398493.449   102269211.747  
C09  41754091.369   217424499.440    41754084.773   168126386.802  
R22  25435645.944   135777199.934                                  
R23  21850829.716   116887288.240                                  
E14  21064262.155   110693444.657    21064262.472    84817056.601  
E03  29282889.187   153882628.627    29282898.243   117910100.254  
E34  25562005.026   134329245.386    25562005.296   102927603.318  
E05  24143703.179   126876030.871                                  
G04  22247814.346   116913054.186                                  
G09  24446779.623   128468692.346                                  
G31                                  25122807.781   102873713.654  
> 2025 07 22 11 30 28.0050000  0 31                     
G17  23042754.680   121090491.516    23042749.793    94356206.500  
G02  24322128.839   127813666.971                                  
G19  23492402.557   123453408.435                                  
G01  22175975.922   116535542.883    22175972.519    90806906.958  
S23  39399826.786   207047491.437  
G03  21594575.287   113480261.859    21594577.138    88426166.476  
C06  41273325.003   214921021.207                                  
C20  23374987.915   121719690.845                                  
C35  24935784.509   129847184.163                                  
C19  24390704.100   127008806.945                                  
C30  26335841.758   137137640.344                                  
C29  23152496.630   120561121.875                                  
R17  25124801.119   134447928.274    25124822.843                  
R24  21167476.621   113191999.572    21167473.298    88038212.949  
R01  20900713.992   111726295.718                                  
R08  21821615.860   116853697.691    21821591.786                  
R02  24306144.182   129702229.421    24306147.997   100879521.168  
G06  26041712.639   136850093.812    26041717.382   106636464.956  
G22  26968983.651   141722776.697                                  
S36  39034121.624   205125679.732  
E36  25398729.047   133471216.882    25398730.153   102270165.286  
C09  41753925.361   217423635.059    41753918.726   168125718.431  
R22  25436463.685   135781558.672                                  
R23  21851377.543   116890217.799                                  
E14  21063813.872   110691088.093    21063813.979    84815250.926  
E03  29282355.529   153879823.947    29282364.489   117907951.212  
E34  25561796.513   134328148.976    25561796.695   102926763.219  
E05  24143404.855   126874462.318                                  
G04  22247502.663   116911416.749                                  
G09  24446168.107   128465479.381                                  
G31                                  25122667.167   102873136.562  
> 2025 07 22 11 30 29.0050000  0 31                     
G17  23042788.447   121090669.595    23042783.738    94356345.278  
G02  24322667.683   127816498.911                                  
G19  23492074.962   123451686.090                                  
G01  22176313.191   116537315.539    22176309.729    90808288.236  
S23  39399894.927   207047849.160  
G03  21594794.748   113481415.058    21594796.266    88427065.115  
C06  41273243.905   214920599.135                                  
C20  23375213.428   121720864.232                                  
C35  24935426.099   129845318.085                                  
C19  24390412.544   127007289.904                                  
C30  26336530.282   137141225.776                                  
C29  23152789.806   120562648.193                                  
R17  25124096.842   134444159.649    25124117.871                  
R24  21167172.801   113190374.953    21167169.429    88036949.340  
R01  20900533.812   111725332.183                                  
R08  21822193.807   116856793.925    21822169.161                  
R02  24305500.979   129698797.490    24305504.906   100876851.877  
G06  26041168.511   136847232.393    26041173.321   106634235.299  
G22  26969454.202                1                                 
S36  39034189.460   205126035.725  
E36  25398965.792   133472462.247    25398967.112   102271119.540  
C09  41753759.417   217422771.546    41753752.957   168125050.718  
R22  25437281.677   135785918.226                                  
R23  21851925.585   116893148.695                                  
E14  21063365.756   110688733.558    21063366.047    84813446.813  
E03  29281821.994   153877020.002    29281830.812   117905802.768  
E34  25561588.135   134327053.428    25561588.230   102925923.767  
E05  24143106.598   126872894.840    24143108.040    97214291.3671 
G04  22247191.222   116909780.537                                  
G09  24445556.930   128462267.337                                  
G31                                  25122526.764   102872560.453  
> 2025 07 22 11 30 30.0050000  0 31                     
G17  23042822.678   121090849.398    23042817.969    94356485.364  
G02  24323206.682   127819332.250                                  
G19  23491747.450   123449965.424                                  
G01  22176650.778   116539089.701    22176647.301    90809670.722  
S23  39399963.200   207048207.955  
G03  21595014.524   113482569.713    21595015.612    88427964.781  
C06  41273163.068   214920178.318                                  
C20  23375439.107   121722039.074                                  
C35  24935067.976   129843453.448                                  
C19  24390121.457   127005774.310                                  
C30  26337219.077   137144812.465                                  
C29  23153083.120   120564176.084                                  
R17  25123392.844   134440392.110    25123411.161                  
R24  21166869.296   113188752.047    21166865.929    88035687.086  
R01  20900353.847   111724370.459                                  
R08  21822772.026   116859891.816    21822748.073                  
R02  24304858.051   129695366.939    24304862.189   100874183.692  
G06  26040624.382   136844372.058    26040629.662   106632006.475  
G22  26969921.471                                                  
S36  39034257.431   205126392.874  
E36  25399203.011   133473709.001    25399204.326   102272074.848  
C09  41753593.854   217421909.312    41753587.420   168124383.972  
R22  25438097.805   135790279.208                                  
R23  21852474.051   116896081.307                                  
E14  21062918.384   110686381.451    21062918.426    84811644.547  
E03  29281288.692   153874217.203    29281297.531   117903655.172  
E34  25561380.074   134325959.148    25561379.991   102925085.297  
E05  24142808.633   126871328.840    24142809.809    97213091.447  
G04  22246880.209   116908145.968                                  
G09  24444946.005   128459056.630                                  
G31                                  25122386.510   102871985.648  
> 2025 07 22 11 30 31.0050000  0 30                     
G17  23042857.117   121091030.810    23042852.514    94356626.732  
G02  24323746.254   127822166.844                                  
G19  23491420.246   123448246.352                                  
G01  22176988.687   116540865.322    22176985.196    90811054.283  
S23  39400031.674   207048567.823  
G03  21595234.571   113483725.714    21595235.193    88428865.564  
C06  41273082.502   214919758.706                                  
C20  23375664.970   121723215.313                                  
C35  24934710.219   129841590.146                                  
C19  24389830.656   127004260.092                                  
C30  26337908.130   137148400.288                                  
C29  23153376.831   120565705.486                                  
R17  25122688.877   134436625.596    25122706.561                  
R24  21166566.057   113187130.775    21166562.725    88034426.102  
R01  20900174.326   111723410.448                                  
R08  21823350.246   116862991.153    21823326.715                  
R02  24304215.369   129691937.733    24304219.609   100871516.523  
G06  26040080.275   136841512.771    26040085.953   106629778.471  
S36  39034325.672   205126751.012  
E36  25399440.546   133474957.017    25399441.863   102273031.114  
C09  41753428.404   217421048.200    41753421.986   168123718.124  
R22  25438915.093   135794641.433                                  
R23  21853022.708   116899015.549                                  
E14  21062471.365   110684031.681    21062471.293    84809844.074  
E03  29280755.462   153871415.471    29280764.467   117901508.397  
E34  25561172.260   134324866.044    25561171.903   102924247.724  
E05  24142510.971   126869764.216    24142511.981    97211892.584  
G04  22246569.451   116906512.957                                  
G09  24444335.153   128455847.148                                  
G31                                  25122246.363   102871412.089  
> 2025 07 22 11 30 32.0050000  0 30                     
G17  23042891.868   121091213.454    23042887.214    94356769.076  
G02  24324285.737   127825002.370                                  
G19  23491093.334   123446528.515                                  
G01  22177326.745   116542641.979    22177323.231    90812438.693  
S23  39400100.296   207048928.360  
G03  21595454.840   113484882.687    21595454.748    88429767.105  
C06  41273002.202   214919339.899                                  
C20  23375891.162   121724392.580                                  
C35  24934352.449   129839727.808                                  
C19  24389539.899   127002746.831                                  
C30  26338597.243   137151988.915                                  
C29  23153670.654   120567236.012                                  
R17  25121985.193   134432859.745    25122001.892                  
R24  21166263.131   113185510.769    21166259.834    88033166.102  
R01  20899995.064   111722451.841                                  
R08  21823928.759   116866091.592    21823905.921                  
R02  24303572.835   129688509.420    24303577.097   100868850.057  
G06  26039536.354   136838654.122    26039542.558   106627550.913  
S36  39034394.006   205127109.801  
E36  25399678.224   133476205.933    25399679.432   102273988.066  
C09  41753263.259   217420187.887    41753256.768   168123052.856  
R22  25439733.400   135799004.422                                  
R23  21853571.592   116901951.052                                  
E14  21062024.652   110681683.892    21062024.595    84808045.109  
E03  29280222.654   153868614.390    29280231.468   117899362.121  
E34  25560964.298   134323773.729    25560963.991   102923410.751  
E05  24142213.717   126868200.579    24142214.630    97210694.483  
G04  22246258.864   116904881.113                                  
G09  24443724.618   128452638.510                                  
G31                                  25122106.683   102870839.474  
> 2025 07 22 11 30 33.0050000  0 30                     
G17  23042927.032   121091397.957    23042922.310    94356912.827  
G02  24324825.292   127827839.356                                  
G19  23490766.810   123444812.494                                  
G01  22177665.172   116544420.241    22177661.645    90813824.374  
S23  39400169.039   207049290.024  
G03  21595675.286   113486041.213    21595675.034    88430669.892  
C06  41272921.924   214918922.509                                  
C20  23376117.630   121725571.447                                  
C35  24933994.992   129837867.035                                  
C19  24389249.616   127001235.156                                  
C30  26339286.685   137155578.963                                  
C29  23153964.807   120568768.246                                  
R17  25121281.747   134429095.175    25121297.629                  
R24  21165960.607   113183892.606    21165957.190    88031907.521  
R01  20899816.084   111721495.108                                  
R08  21824506.068                1   21824485.977                  
R02  24302930.627   129685082.691    24302934.998   100866184.821  
G06  26038992.563   136835796.677    26038999.198   106625324.402  
S36  39034462.579   205127469.875  
E36  25399916.097   133477456.302    25399917.250   102274946.119  
C09  41753098.178   217419328.885    41753091.817   168122388.652  
R22  25440548.438   135803368.796                                  
R23  21854120.815   116904888.397                                  
E14  21061578.383   110679338.634    21061578.348    84806248.096  
E03  29279689.960   153865814.585    29279698.613   117897216.839  
E34  25560756.767   134322682.804    25560756.564   102922574.842  
E05  24141916.716   126866638.562    24141917.353    97209497.602  
G04  22245948.733   116903251.043                                  
G09  24443114.260   128449431.352                                  
G31                                  25121967.283   102870268.257  
> 2025 07 22 11 30 34.0050000  0 30                     
G17  23042962.559   121091584.414    23042957.822    94357058.127  
G02  24325365.284   127830677.979                                  
G19  23490440.640   123443098.410                                  
G01  22178003.926   116546200.283    22178000.391    90815211.421  
S23  39400238.162   207049653.052  
G03  21595896.088   113487201.456    21595895.408    88431573.942  
C06  41272842.410   214918506.655                                  
C20  23376344.432   121726752.007                                  
C35  24933637.993   129836007.942                                  
C19  24388959.772   126999725.174                                  
C30  26339976.352   137159170.433                                  
C29  23154259.506   120570302.313                                  
R17  25120578.620   134425332.004    25120593.406                  
R24  21165658.408   113182276.429    21165654.998    88030650.508  
R01  20899637.486   111720540.478                                  
R08  21825084.743                    21825065.513                  
R02  24302288.611   129681657.634    24302293.179   100863520.896  
G06  26038449.118   136832940.619    26038456.017   106623098.873  
S36  39034531.363   205127831.302  
E36  25400154.393   133478708.280    25400155.476   102275905.447  
C09  41752933.280   217418471.466    41752927.075   168121725.594  
R22  25441365.491   135807734.713                                  
R23  21854670.488   116907827.753                                  
E14  21061132.545   110676996.073    21061132.608    84804453.139  
E03  29279157.412   153863016.190    29279166.132   117895072.601  
E34  25560549.351   134321593.378    25560549.243   102921740.083  
E05  24141619.903   126865078.271    24141620.285    97208302.052  
G04  22245638.783   116901622.849                                  
G09  24442504.222   128446225.735                                  
G31                                  25121828.198   102869698.514  
> 2025 07 22 11 30 35.0050000  0 30                     
G17  23042998.529   121091772.830    23042993.585    94357204.936  
G02  24325905.679   127833518.251                                  
G19  23490114.743   123441386.272                                  
G01  22178343.007   116547982.108    22178339.446    90816599.859  
S23  39400307.607   207050017.561  
G03  21596117.352   113488363.393    21596116.260    88432479.357  
C06  41272762.866   214918092.304                                  
C20  23376571.549   121727934.320                                  
C35  24933281.160   129834150.546                                  
C19  24388670.016   126998216.913                                  
C30  26340666.341   137162763.462                                  
C29  23154554.384   120571838.232                                  
R17  25119875.512   134421570.198    25119888.363                  
R24  21165356.623   113180662.267    21165352.998    88029395.073  
R01  20899459.433   111719587.956                                  
R08  21825660.477                    21825646.852                  
R02  24301646.995   129678234.332    24301651.657   100860858.347  
G06  26037905.948   136830085.919    26037912.992   106620874.435  
S36  39034600.440   205128194.146  
E36  25400392.943   133479961.891    25400393.930   102276865.994  
C09  41752768.973   217417615.462    41752762.708   168121063.670  
R22  25442182.916   135812102.263                                  
R23  21855220.499   116910769.059                                  
E14  21060687.254   110674656.195    21060687.419    84802660.246  
E03  29278625.127   153860219.188    29278633.864   117892929.452  
E34  25560342.469   134320505.489    25560342.262   102920906.515  
E05  24141323.301   126863519.695    24141323.485    97207107.824  
G04  22245329.306   116899996.574                                  
G09  24441894.537   128443021.728                                  
G31                                  25121689.513   102869130.379  
> 2025 07 22 11 30 36.0050000  0 30                     
G17  23043034.746   121091962.623    23043029.846    94357352.821  
G02  24326446.169   127836359.520                                  
G19  23489789.276   123439675.487                                  
G01  22178682.391   116549765.142    22178678.843    90817989.217  
S23  39400377.143   207050382.712  
G03  21596338.564   113489526.428    21596337.234    88433385.596  
C06  41272683.484   214917678.930                                  
C20  23376798.758   121729117.780                                  
C35  24932924.747   129832294.235                                  
C19  24388380.543   126996709.740                                  
C30  26341356.295   137166357.462                                  
C29  23154849.678   120573375.408                                  
R17  25119172.706   134417809.188    25119187.117                  
R24  21165055.142   113179049.456    21165051.510    88028140.654  
R01  20899281.576   111718636.874                                  
R08  21826238.456                    21826228.830                  
R02  24301005.534   129674812.093    24301010.191   100858196.614  
G06  26037362.995   136827232.002    26037370.308   106618650.608  
S36  39034669.648   205128557.770  
E36  25400631.658   133481216.501    25400632.681   102277827.332  
C09  41752604.631   217416760.376    41752598.494   168120402.510  
R22  25442998.853   135816470.745                                  
R23  21855770.842   116913711.746                                  
E14  21060242.545   110672318.409    21060242.370    84800868.952  
E03  29278092.962   153857422.999    29278101.963   117890786.931  
E34  25560135.665   134319418.506    25560135.459   102920073.629  
E05  24141026.794   126861962.264    24141027.281    97205914.465  
G04  22245020.065   116898371.603                                  
G09  24441285.037   128439818.700                                  
G31                                  25121550.728   102868563.203  
> 2025 07 22 11 30 37.0050000  0 30                     
G17  23043071.165   121092153.605    23043066.050    94357501.642  
G02  24326987.082   127839201.691                                  
G19  23489463.960   123437965.868                                  
G01  22179021.858   116551549.114    22179018.340    90819379.325  
S23  39400446.868   207050748.513  
G03  21596560.015   113490690.376    21596558.382    88434292.630  
C06  41272604.311   214917266.290                                  
C20  23377026.172   121730302.180                                  
C35  24932568.442   129830438.870                                  
C19  24388091.187   126995203.501                                  
C30  26342046.577   137169952.149                                  
C29  23155144.966   120574913.643                                  
R17  25118469.987   134414048.800    25118484.528                  
R24  21164753.674   113177437.801    21164750.229    88026887.145  
R01  20899103.910   111717687.083                                  
R08  21826814.163                    21826810.604    90907894.9363 
R02  24300364.324   129671390.710    24300369.008   100855535.544  
G06  26036820.128   136824378.681    26036827.631   106616427.209  
S36  39034738.994   205128921.957  
E36  25400870.435   133482471.945    25400871.601   102278789.305  
C09  41752440.485   217415906.038    41752434.439   168119741.882  
R22  25443817.246                1                                 
R23  21856321.320   116916655.671                                  
E14  21059797.869   110669982.514    21059797.884    84799079.118  
E03  29277560.904   153854627.418    29277569.909   117888644.836  
E34  25559929.094   134318332.299    25559928.824   102919241.324  
E05  24140730.683   126860405.766    24140731.013    97204721.826  
G04  22244710.936   116896747.739                                  
G09  24440675.575   128436616.468                                  
G31                                  25121412.599   102867996.930  
> 2025 07 22 11 30 38.0050000  0 30                     
G17  23043108.000   121092346.386    23043102.676    94357651.844  
G02  24327528.229   127842045.312                                  
G19  23489138.977   123436258.062                                  
G01  22179361.652   116553334.723    22179358.129    90820770.724  
S23  39400516.858   207051115.516  
G03  21596781.826   113491855.888    21596779.854    88435200.800  
C06  41272525.302   214916855.058                                  
C20  23377253.995   121731488.183                                  
C35  24932212.484   129828585.026                                  
C19  24387802.331   126993698.834                                  
C30  26342737.237   137173548.193                                  
C29  23155440.554   120576453.581                                  
R17  25117767.513   134410289.615    25117781.026                  
R24  21164452.639   113175827.996    21164449.170    88025635.067  
R01  20898926.734   111716739.232                                  
R08  21827391.285                    21827392.480    90910313.6012 
R02  24299723.284   129667970.780    24299728.175   100852875.631  
G06  26036277.481   136821526.587    26036285.230   106614204.816  
S36  39034808.441   205129287.337  
E36  25401109.671   133483728.866    25401110.966   102279752.381  
C09  41752276.689   217415053.022    41752270.594   168119082.284  
R22  25444633.686                                                  
R23  21856872.154   116919601.365                                  
E14  21059354.173   110667649.190    21059354.027    84797291.243  
E03  29277029.277   153851833.109    29277038.108   117886503.766  
E34  25559722.420   134317247.447    25559722.267   102918410.071  
E05  24140434.887   126858850.877    24140435.215    97203530.420  
G04  22244402.247   116895125.634                                  
G09  24440066.428   128433415.674                                  
G31                                  25121274.539   102867432.088  
> 2025 07 22 11 30 39.0050000  0 30                     
G17  23043144.913   121092540.289    23043139.579    94357802.969  
G02  24328069.391   127844889.727                                  
G19  23488814.252   123434551.319                                  
G01  22179701.730   116555121.233    22179698.058    90822162.813  
S23  39400586.863   207051482.983  
G03  21597003.820   113493022.226    21597001.716    88436109.617  
C06  41272446.397   214916444.553                                  
C20  23377481.977   121732675.068                                  
C35  24931856.752   129826732.020                                  
C19  24387513.524   126992195.010                                  
C30  26343427.842   137177144.887                                  
C29  23155736.461   120577994.514                                  
R17  25117065.100   134406530.947    25117076.253                  
R24  21164151.742   113174219.336    21164148.382    88024383.896  
R01  20898749.735   111715792.619                                  
R08  21827970.271                    21827974.898    90912733.034  
R02  24299082.469   129664551.670    24299087.488   100850216.322  
G06  26035734.891   136818674.960    26035742.994   106611982.780  
S36  39034878.069   205129653.273  
E36  25401349.359   133484986.539    25401350.204   102280716.078  
C09  41752113.161   217414200.727    41752106.922   168118423.216  
R22  25445452.529                                                  
R23  21857423.184   116922548.242                                  
E14  21058910.589   110665317.659    21058910.314    84795504.747  
E03  29276497.764   153849039.337    29276506.447   117884363.056  
E34  25559516.213   134316163.254    25559515.941   102917579.332  
E05  24140139.156   126857296.836    24140139.633    97202339.661  
G04  22244093.766   116893504.562                                  
G09  24439457.469   128430215.597                                  
G31                                  25121136.599   102866868.047  
> 2025 07 22 11 30 40.0050000  0 30                     
G17  23043182.080   121092735.521    23043176.734    94357955.082  
G02  24328610.705   127847735.157                                  
G19  23488489.579   123432845.917                                  
G01  22180041.929   116556908.898    22180038.286    90823555.800  
S23  39400656.821   207051851.149  
G03  21597225.969   113494189.645    21597223.803    88437019.324  
C06  41272367.782   214916034.874                                  
C20  23377710.264   121733863.066                                  
C35  24931501.203   129824880.078                                  
C19  24387224.829   126990692.262                                  
C30  26344118.762   137180742.451                                  
C29  23156032.588   120579536.658                                  
R17  25116362.985   134402773.042    25116371.181                  
R24  21163851.099   113172612.037    21163847.829    88023133.759  
R01  20898572.994   111714847.420                                  
R08  21828550.041                    21828557.531    90915153.440  
R02  24298441.922   129661133.580    24298446.989   100847557.840  
G06  26035192.367   136815824.088    26035200.675   106609761.335  
S36  39034947.779   205130019.993  
E36  25401588.956   133486245.232    25401589.722   102281680.474  
C09  41751949.573   217413349.200    41751943.325   168117764.793  
R22  25446270.784                                                  
R23  21857974.426   116925496.442                                  
E14  21058467.495   110662988.214    21058467.064    84793719.848  
E03  29275966.258   153846246.320    29275974.952   117882223.025  
E34  25559310.070   134315079.945    25559309.854   102916749.273  
E05  24139843.561   126855743.911    24139844.052    97201149.768  
G04  22243785.544   116891884.768                                  
G09  24438848.691   128427016.477                                  
G31                                  25120999.107   102866305.057  
> 2025 07 22 11 30 41.0050000  0 30                     
G17  23043219.568   121092932.087    23043214.090    94358108.251  
G02  24329152.285   127850581.557                                  
G19  23488165.182   123431141.819                                  
G01  22180382.310   116558697.695    22180378.660    90824949.672  
S23  39400726.968   207052220.056  
G03  21597448.338   113495358.130    21597446.018    88437929.786  
C06  41272289.136   214915626.136                                  
C20  23377938.626   121735052.136                                  
C35  24931145.724   129823029.198                                  
C19  24386936.315   126989190.616                                  
C30  26344809.848   137184340.941                                  
C29  23156328.895   120581079.994                                  
R17  25115660.776   134399015.845    25115668.092                  
R24  21163550.680   113171006.000    21163547.489    88021884.634  
R01  20898396.554   111713903.664                                  
R08  21829130.165   116894000.2573   21829139.383    90917574.801  
R02  24297801.427   129657716.556    24297806.619   100844900.171  
G06  26034650.034   136812973.933    26034658.411   106607540.443  
S36  39035017.666   205130387.456  
E36  25401828.689   133487504.840    25401829.310   102282645.668  
C09  41751786.324   217412498.614    41751779.816   168117107.015  
R22  25447088.524                                                  
R23  21858525.895   116928445.976                                  
E14  21058024.513   110660660.818    21058024.026    84791936.515  
E03  29275434.593   153843454.081    29275443.697   117880083.521  
E34  25559104.356   134313997.525    25559103.979   102915919.885  
E05  24139548.190   126854192.059    24139548.654    97199960.687  
G04  22243477.482   116890266.227                                  
G09  24438239.970   128423818.295                                  
G31                                  25120861.508   102865743.013  
> 2025 07 22 11 30 42.0050000  0 30                     
G17  23043257.265   121093129.664    23043251.731    94358262.198  
G02  24329693.919   127853428.623                                  
G19  23487841.150   123429438.696                                  
G01  22180722.934   116560487.318    22180719.167    90826344.167  
S23  39400797.417   207052589.452  
G03  21597670.789   113496527.347    21597668.297    88438840.896  
C06  41272210.809   214915217.926                                  
C20  23378167.104   121736242.026                                  
C35  24930790.303   129821179.053                                  
C19  24386648.169   126987689.675                                  
C30  26345501.066   137187939.974                                  
C29  23156625.546   120582624.232                                  
R17  25114958.898   134395259.084    25114966.365                  
R24  21163250.539   113169400.938    21163247.309    88020636.272  
R01  20898220.293   111712961.020                                  
R08  21829709.730                    21829721.936    90919996.661  
R02  24297161.088   129654300.324    24297166.401   100842243.066  
G06  26034107.765   136810124.211    26034116.274   106605319.876  
S36  39035087.517   205130755.310  
E36  25402068.540   133488765.139    25402069.103   102283611.337  
C09  41751623.155   217411648.558    41751616.520   168116449.715  
R22  25447907.580                                                  
R23  21859077.596   116931396.480                                  
E14  21057582.011   110658335.149    21057581.428    84790154.508  
E03  29274903.362   153840662.292    29274912.520   117877944.340  
E34  25558898.302   134312915.658    25558897.871   102915090.916  
E05  24139253.050   126852640.991    24139253.462    97198772.194  
G04  22243169.514   116888648.626                                  
G09  24437631.405   128420620.745                                  
G31                                  25120724.328   102865181.801  
> 2025 07 22 11 30 43.0050000  0 30                     
G17  23043295.009   121093327.997    23043289.326    94358416.745  
G02  24330235.678   127856276.118                                  
G19  23487517.206   123427736.334                                  
G01  22181063.623   116562277.484    22181059.852    90827739.101  
S23  39400867.740   207052958.947  
G03  21597893.492   113497697.056    21597890.698    88439752.323  
C06  41272132.290   214914810.182                                  
C20  23378395.621   121737432.416                                  
C35  24930435.068   129819329.400                                  
C19  24386359.986   126986189.249                                  
C30  26346192.377   137191539.289                                  
C29  23156922.279   120584169.144                                  
R17  25114256.947   134391502.472    25114263.237                  
R24  21162950.532   113167796.669    21162947.418    88019388.519  
R01  20898044.130   111712019.219                                  
R08  21830291.187                    21830304.167    90922419.138  
R02  24296520.884   129650884.518    24296526.223   100839586.342  
G06  26033565.507   136807274.618    26033574.125   106603099.420  
S36  39035157.490   205131123.213  
E36  25402308.522   133490025.817    25402309.093   102284577.300  
C09  41751459.874   217410798.793    41751453.291   168115792.621  
R22  25448726.779                                                  
R23  21859629.290   116934347.761                                  
E14  21057139.831   110656010.960    21057139.137    84788373.632  
E03  29274372.364   153837870.668    29274381.329   117875805.327  
E34  25558692.590   134311834.114    25558692.128   102914262.185  
E05  24138958.069   126851090.428    24138958.288    97197584.111  
G04  22242861.871   116887031.723                                  
G09  24437022.905   128417423.574                                  
G31                                  25120587.492   102864621.120  
> 2025 07 22 11 30 44.0050000  0 30                     
G17  23043332.826   121093526.798    23043327.252    94358571.672  
G02  24330777.677   127859123.782                                  
G19  23487193.431   123426034.432                                  
G01  22181404.324   116564067.949    22181400.616    90829134.290  
S23  39400937.957   207053328.236  
G03  21598116.104   113498866.999    21598113.093    88440663.978  
C06  41272054.034   214914402.397                                  
C20  23378624.278   121738623.087                                  
C35  24930079.893   129817479.989                                  
C19  24386071.967   126984689.086                                  
C30  26346883.628   137195138.672                                  
C29  23157219.027   120585714.409                                  
R17  25113554.889   134387745.751    25113560.098                  
R24  21162650.590   113166192.928    21162647.440    88018141.153  
R01  20897868.126   111711077.992                                  
R08  21830870.442                    21830888.889    90924841.851  
R02  24295880.659   129647468.941    24295886.040   100836929.772  
G06  26033023.163   136804424.956    26033031.906   106600878.894  
S36  39035227.423   205131490.941  
E36  25402548.543   133491286.668    25402548.807   102285543.403  
C09  41751296.689   217409949.068    41751290.025   168115135.576  
R22  25449543.581                                                  
R23  21860181.150   116937299.526                                  
E14  21056697.906   110653687.989    21056696.927    84786593.692  
E03  29273841.029   153835078.998    29273850.197   117873666.261  
E34  25558486.941   134310752.598    25558486.346   102913433.498  
E05  24138663.118   126849540.141    24138663.344    97196396.240  
G04  22242554.327   116885415.239                                  
G09  24436414.514   128414226.510                                  
G31                                  25120450.588   102864060.818  
> 2025 07 22 11 30 45.0050000  0 30                     
G17  23043370.819   121093726.609    23043365.187    94358727.336  
G02  24331319.697   127861972.077                                  
G19  23486869.703   123424333.499                                  
G01  22181745.376   116565859.220    22181741.495    90830530.062  
S23  39401008.308   207053697.948  
G03  21598338.834   113500037.642    21598335.844    88441576.172  
C06  41271975.626   214913995.200                                  
C20  23378853.015   121739814.526                                  
C35  24929724.765   129815631.281                                  
C19  24385783.865   126983189.661                                  
C30  26347574.963   137198738.601                                  
C29  23157516.003   120587260.548                                  
R17  25112852.925   134383989.403    25112858.180                  
R24  21162350.821   113164590.216    21162347.782    88016894.584  
R01  20897692.334   111710137.884                                  
R08  21831449.475                    21831471.183    90927265.192  
R02  24295240.628   129644053.963    24295246.036   100834273.701  
G06  26032480.901   136801575.633    26032489.778   106598658.674  
S36  39035297.358   205131858.931  
E36  25402788.430   133492548.133    25402788.863   102286509.969  
C09  41751133.623   217409099.861    41751127.025   168114478.920  
R22  25450363.116                                                  
R23  21860733.213   116940252.277                                  
E14  21056256.075   110651366.726    21056255.215    84784815.052  
E03  29273309.678   153832287.743    29273319.118   117871527.525  
E34  25558280.962   134309671.634    25558280.664   102912605.232  
E05  24138368.353   126847990.590    24138368.336    97195208.910  
G04  22242246.938   116883799.671                                  
G09  24435806.136   128411030.037                                  
G31                                  25120313.644   102863501.252  
> 2025 07 22 11 30 46.0050000  0 31                     
G17  23043409.082   121093927.537    23043403.378    94358883.930  
G02  24331861.872   127864821.164                                  
G19  23486546.318   123422633.668                                  
G01  22182086.433   116567651.407    22182082.595    90831926.572  
S23  39401078.838   207054068.212  
G03  21598561.784   113501209.144    21598558.765    88442489.081  
C06  41271897.789   214913588.751                                  
C20  23379082.085   121741006.844                                  
C35  24929369.918   129813783.444                                  
C19  24385495.920   126981691.078                                  
C30  26348266.461   137202339.250                                  
C29  23157813.173   120588807.701                                  
R17  25112150.962   134380233.601    25112156.884                  
R24  21162051.374   113162988.625    21162048.253    88015648.893  
R01  20897516.746   111709198.979                                  
R08  21832031.115   116909535.0873   21832052.220    90929689.315  
R02  24294600.810   129640639.816    24294606.257   100831618.253  
G06  26031938.698   136798726.867    26031947.745   106596438.839  
G22  26977487.545                                                  
S36  39035367.476   205132227.500  
E36  25403028.458   133493810.365    25403029.213   102287477.130  
C09  41750970.610   217408251.342    41750964.115   168113822.778  
R22  25451181.949                                                  
R23  21861285.537   116943206.178                                  
E14  21055814.510   110649047.297    21055813.885    84783037.833  
E03  29272778.755   153829497.049    29272787.874   117869389.227  
E34  25558075.425   134308591.347    25558074.996   102911777.477  
E05  24138073.450   126846441.946    24138073.526    97194022.300  
G04  22241939.777   116882185.173                                  
G09  24435197.942   128407834.318                                  
G31                                  25120177.298   102862942.540  
> 2025 07 22 11 30 47.0050000  0 31                     
G17  23043447.535   121094129.763    23043441.883    94359041.494  
G02  24332404.145   127867671.251                                  
G19  23486223.140   123420935.131                                  
G01  22182427.515   116569444.717    22182423.832    90833323.944  
S23  39401149.442   207054439.134  
G03  21598784.963   113502381.693    21598782.046    88443402.708  
C06  41271819.950   214913183.175                                  
C20  23379311.242   121742200.251                                  
C35  24929015.221   129811936.618                                  
C19  24385208.316   126980193.550                                  
C30  26348958.115   137205940.710                                  
C29  23158110.476   120590356.046                                  
R17  25111449.246   134376478.503    25111455.441                  
R24  21161752.062   113161388.281    21161748.924    88014404.197  
R01  20897341.388   111708261.485                                  
R08  21832612.006   116912652.968    21832632.214    90932114.314  
R02  24293961.149   129637226.687    24293966.625   100828963.596  
G06  26031396.770   136795878.824    26031405.865   106594219.595  
G22  26977967.796                                                  
S36  39035437.752   205132596.714  
E36  25403268.962   133495073.541    25403269.570   102288445.040  
C09  41750807.675   217407403.603    41750801.418   168113167.284  
R22  25452000.020                                                  
R23  21861838.020   116946161.374                                  
E14  21055373.261   110646729.912    21055372.977    84781262.178  
E03  29272247.900   153826707.087    29272257.113   117867251.449  
E34  25557869.733   134307511.906    25557869.544   102910950.379  
E05  24137778.848   126844894.349    24137779.092    97192836.473  
G04  22241632.784   116880571.902                                  
G09  24434589.967   128404639.514                                  
G31                                  25120040.974   102862384.782  
> 2025 07 22 11 30 48.0050000  0 31                     
G17  23043486.301   121094333.415    23043480.564    94359200.191  
G02  24332946.708   127870522.405                                  
G19  23485900.211   123419238.001                                  
G01  22182768.984   116571239.239    22182765.299    90834722.292  
S23  39401220.188   207054810.880  
G03  21599008.353   113503555.388    21599005.533    88444317.314  
C06  41271742.291   214912778.529                                  
C20  23379540.600   121743394.858                                  
C35  24928660.804   129810090.970                                  
C19  24384920.992   126978697.193                                  
C30  26349649.922   137209543.148                                  
C29  23158408.224   120591905.678                                  
R17  25110747.669   134372724.283    25110753.572                  
R24  21161453.245   113159789.373    21161450.055    88013160.591  
R01  20897166.274   111707325.537                                  
R08  21833197.265   116915772.142    21833213.695    90934540.288  
R02  24293321.682   129633814.651    24293327.149   100826309.805  
G06  26030854.990   136793031.586    26030864.086   106592000.957  
G22  26978447.752                                                  
S36  39035508.138   205132966.744  
E36  25403509.626   133496337.818    25403510.005   102289413.760  
C09  41750645.394   217406556.843    41750638.837   168112512.496  
R22  25452817.973                                                  
R23  21862390.827   116949118.060                                  
E14  21054932.582   110644414.654    21054932.271    84779488.156  
E03  29271717.039   153823917.992    29271726.124   117865114.351  
E34  25557664.394   134306433.477    25557664.445   102910124.026  
E05  24137484.480   126843347.947    24137485.024    97191651.568  
G04  22241325.997   116878959.993                                  
G09  24433982.149   128401445.759                                  
G31                                  25119905.160   102861828.207  
> 2025 07 22 11 30 49.0050000  0 32                     
G17  23043525.236   121094538.078    23043519.549    94359359.663  
G02  24333489.556   127873374.243                                  
G19  23485577.481   123417541.854                                  
G01  22183110.583   116573034.581    22183106.963    90836121.246  
S23  39401291.022   207055183.042  
G03  21599231.808   113504729.837    21599229.355    88445232.435  
C06  41271664.867   214912374.556                                  
C20  23379770.165   121744590.222                                  
C35  24928306.473   129808246.039                                  
C19  24384633.713   126977201.582                                  
C30  26350341.946   137213146.149                                  
C29  23158706.036   120593456.216                                  
R17  25110046.160   134368970.462    25110052.556                  
R24  21161154.434   113158191.475    21161151.143    88011917.788  
R01  20896991.433   111706390.669                                  
R08  21833781.625   116918892.040    21833795.659                  
R02  24292682.445   129630403.369    24292687.802   100823656.570  
G06  26030313.208   136790184.760    26030322.411   106589782.671  
G22  26978925.613                                                  
S36  39035578.605   205133337.065  
E36  25403750.302   133497602.743    25403750.925   102290382.982  
C09  41750483.040   217405710.666    41750476.329   168111858.204  
R22  25453634.863                                                  
R23  21862943.840   116952075.731                                  
E14  21054492.185   110642101.146    21054492.065    84777715.461  
E03  29271186.428   153821129.335    29271195.395   117862977.606  
E34  25557458.988   134305355.566    25557459.344   102909298.116  
E05  24137190.443   126841802.322    24137190.771    97190467.266  
G04  22241019.539   116877349.019    22241050.646    91073384.3853 
G09  24433374.493   128398252.630                                  
E27  30027139.120   157793680.4221                                 
G31                                  25119769.487   102861272.302  
> 2025 07 22 11 30 50.0050000  0 32                     
G17  23043564.488   121094743.807    23043558.654    94359519.971  
G02  24334032.390   127876226.795                                  
G19  23485254.950   123415846.762                                  
G01  22183452.367   116574830.800    22183448.670    90837520.874  
S23  39401362.013   207055555.670  
G03  21599455.410   113505905.092    21599453.233    88446148.212  
C06  41271587.339   214911971.132                                  
C20  23379999.890   121745786.457                                  
C35  24927952.310   129806401.920                                  
C19  24384346.642   126975706.784                                  
C30  26351034.061   137216749.781                                  
C29  23159004.063   120595007.705                                  
R17  25109344.679   134365217.122    25109352.729                  
R24  21160855.972   113156594.701    21160852.582    88010675.857  
R01  20896816.799   111705456.997                                  
R08  21834365.448   116922012.970    21834376.264                  
R02  24292043.381   129626992.862    24292048.702   100821003.955  
G06  26029771.476   136787338.399    26029780.798   106587564.690  
G22  26979404.296                                                  
S36  39035649.215   205133708.036  
E36  25403991.289   133498868.350    25403991.830   102291352.719  
C09  41750320.578   217404865.086    41750313.821   168111204.347  
R22  25454453.397                                                  
R23  21863497.103   116955034.484                                  
E14  21054052.306   110639789.424    21054052.038    84775944.141  
E03  29270656.003   153818341.185    29270664.850   117860841.236  
E34  25557253.712   134304278.297    25557254.395   102908472.672  
E05  24136896.436   126840257.512    24136896.780    97189283.588  
G04  22240713.134   116875739.051    22240711.477    91071994.3631 
G09  24432767.005   128395060.167    24432772.131   100048117.3241 
E27  30027296.027   157794496.880                                  
G31                                  25119633.824   102860717.218  
> 2025 07 22 11 30 51.0050000  0 32                     
G17  23043603.818   121094950.428    23043598.063    94359680.985  
G02  24334575.419   127879079.917                                  
G19  23484932.544   123414152.552                                  
G01  22183794.363   116576627.744    22183790.687    90838921.067  
S23  39401432.948   207055928.611  
G03  21599679.072   113507080.964    21599677.134    88447064.479  
C06  41271510.101   214911568.249                                  
C20  23380229.755   121746983.364                                  
C35  24927598.233   129804558.436                                  
C19  24384059.593   126974212.624                                  
C30  26351726.110   137220353.824                                  
C29  23159302.054   120596559.981                                  
R17  25108643.337   134361464.083    25108652.149                  
R24  21160557.601   113154998.832    21160554.267    88009434.621  
R01  20896642.326   111704524.317                                  
R08  21834951.504   116925134.712    21834959.119                  
R02  24291404.291   129623582.946    24291409.688   100818351.809  
G06  26029229.886   136784492.354    26029239.344   106585347.017  
G22  26979885.747                                                  
G31  25119489.602   132003807.9023   25119498.642   102860162.844  
S36  39035719.843   205134079.320  
E36  25404232.264   133500134.538    25404233.006   102292322.927  
C09  41750158.230   217404019.913    41750151.534   168110550.845  
R22  25455273.464                                                  
R23  21864050.442   116957994.114                                  
E14  21053612.310   110637479.313    21053612.407    84774174.069  
E03  29270125.542   153815553.379    29270134.142   117858705.128  
E34  25557048.754   134303201.478    25557049.416   102907647.593  
E05  24136602.543   126838713.385    24136602.991    97188100.421  
G04  22240406.942   116874129.918    22240403.814    91070740.494  
G09  24432159.556   128391868.224    24432164.967   100045630.096  
E27  30027451.655   157795314.084                                  
> 2025 07 22 11 30 52.0050000  0 32                     
G17  23043643.468   121095158.272    23043637.632    94359842.939  
G02  24335118.628   127881933.922                                  
G19  23484610.386   123412459.542                                  
G01  22184136.439   116578425.656    22184132.840    90840322.051  
S23  39401504.029   207056302.159  
G03  21599902.970   113508257.795    21599901.235    88447981.498  
C06  41271433.023   214911166.183                                  
C20  23380459.945   121748181.245                                  
C35  24927244.450   129802715.890                                  
C19  24383772.977   126972719.452                                  
C30  26352418.395   137223958.681                                  
C29  23159600.271   120598113.363                                  
R17  25107942.087   134357711.654    25107950.216                  
R24  21160259.469   113153404.190    21160256.127    88008194.342  
R01  20896468.101   111703592.936                                  
R08  21835536.831   116928257.407    21835540.306                  
R02  24290765.476   129620173.931    24290770.710   100815700.363  
G06  26028688.448   136781646.897    26028697.898   106583129.796  
G22  26980366.362                                                  
G31  25119357.400   132003097.5932   25119363.705   102859609.321  
S36  39035790.492   205134451.151  
E36  25404473.286   133501401.566    25404474.019   102293293.780  
C09  41749996.104   217403175.543    41749989.406   168109897.893  
R22  25456092.462                                                  
R23  21864604.005   116960954.995                                  
E14  21053173.123   110635171.169    21053173.217    84772405.473  
E03  29269595.074   153812766.198    29269603.577   117856569.490  
E34  25556843.905   134302125.436    25556844.706   102906823.096  
E05  24136308.747   126837170.231    24136309.345    97186918.005  
G04  22240100.925   116872521.923    22240097.937    91069487.519  
G09  24431552.345   128388677.119    24431556.933   100043143.545  
E27  30027607.399   157796132.315                                  
> 2025 07 22 11 30 53.0050000  0 32                     
G17  23043683.237   121095367.145    23043677.334    94360005.681  
G02  24335661.886   127884788.616                                  
G19  23484288.471   123410767.539                                  
G01  22184478.814   116580224.449    22184475.128    90841723.692  
S23  39401575.178   207056676.124  
G03  21600127.137   113509435.383    21600125.285    88448899.062  
C06  41271355.980   214910764.637                                  
C20  23380690.007   121749379.916                                  
C35  24926890.884   129800874.110                                  
C19  24383486.363   126971227.032                                  
C30  26353110.726   137227564.103                                  
C29  23159898.760   120599667.650                                  
R17  25107240.914   134353959.678    25107250.792                  
R24  21159961.411   113151810.500    21159958.203    88006954.820  
R01  20896294.071   111702662.692                                  
R08  21836121.426   116931380.942    21836121.667                  
R02  24290126.784   129616765.632    24290132.023   100813049.456  
G06  26028146.997   136778801.885    26028156.440   106580912.890  
G22  26980846.910                                                  
G31  25119225.384   132002388.2852   25119228.642   102859056.621  
S36  39035861.242   205134823.375  
E36  25404714.744   133502669.265    25404715.184   102294265.131  
C09  41749834.319   217402331.689    41749827.404   168109245.382  
R22  25456911.017                                                  
R23  21865157.820   116963916.872                                  
E14  21052733.989   110632864.746    21052734.280    84770638.225  
E03  29269064.899   153809979.501    29269073.293   117854434.235  
E34  25556639.246   134301049.971    25556639.888   102905999.029  
E05  24136015.195   126835627.858    24136015.755    97185736.192  
G04  22239795.063   116870914.905    22239791.959    91068235.297  
G09  24430945.148   128385486.659    24430949.797   100040657.474  
E27  30027762.848   157796951.400                                  
> 2025 07 22 11 30 54.0050000  0 32                     
G17  23043723.084   121095576.928    23043717.303    94360169.147  
G02  24336205.261   127887643.886                                  
G19  23483966.759   123409076.430                                  
G01  22184821.274   116582023.924    22184817.473    90843125.887  
S23  39401646.238   207057050.387  
G03  21600351.372   113510613.627    21600349.958    88449817.184  
C06  41271279.042   214910363.652                                  
C20  23380920.393   121750579.289                                  
C35  24926537.354   129799032.975                                  
C19  24383199.837   126969735.274                                  
C30  26353803.245   137231169.988                                  
C29  23160197.410   120601222.737                                  
R17  25106539.782   134350208.014    25106550.150                  
R24  21159663.607   113150217.747    21159660.272    88005715.991  
R01  20896120.160   111701733.482                                  
R08  21836704.948   116934505.299    21836705.959                  
R02  24289488.276   129613357.928    24289493.399   100810399.034  
G06  26027605.633   136775957.199    26027615.260   106578696.239  
G22  26981328.675                                                  
G31  25119093.184   132001679.9002   25119093.876   102858504.634  
S36  39035932.167   205135195.889  
E36  25404956.093   133503937.548    25404956.336   102295236.923  
C09  41749672.392   217401488.329    41749665.457   168108593.222  
R22  25457730.185                                                  
R23  21865711.764   116966879.686                                  
E14  21052295.490   110630559.997    21052295.836    84768872.240  
E03  29268534.708   153807193.156    29268543.042   117852299.256  
E34  25556434.761   134299974.969    25556435.426   102905175.324  
E05  24135721.521   126834086.170    24135722.295    97184554.894  
G04  22239489.466   116869308.722    22239486.478    91066983.717  
G09  24430338.273   128382296.728    24430342.418   100038171.820  
E27  30027918.720   157797771.238                                  
> 2025 07 22 11 30 55.0050000  0 32                     
G17  23043763.335   121095788.028    23043757.374    94360333.651  
G02  24336748.842   127890500.138                                  
G19  23483645.234   123407386.616                                  
G01  22185163.948   116583824.537    22185160.059    90844528.967  
S23  39401717.567   207057425.356  
G03  21600575.824   113511792.904    21600574.474    88450736.079  
C06  41271202.099   214909963.477                                  
C20  23381150.769   121751779.749                                  
C35  24926184.027   129797192.887                                  
C19  24382913.599   126968244.587                                  
C30  26354495.911   137234776.743                                  
C29  23160496.322   120602779.024                                  
R17  25105838.897   134346457.121    25105849.035                  
R24  21159366.153   113148626.303    21159362.633    88004478.215  
R01  20895946.549   111700805.672                                  
R08  21837289.257   116937630.771    21837289.399                  
R02  24288849.973   129609951.271    24288854.967   100807749.419  
G06  26027064.437   136773113.192    26027074.067   106576480.163  
G22  26981810.864                                                  
G31  25118956.453   132000972.2281   25118959.478   102857953.631  
S36  39036003.185   205135569.119  
E36  25405197.796   133505206.802    25405197.942   102296209.449  
C09  41749510.442   217400645.817    41749503.652   168107941.745  
R22  25458549.671                                                  
R23  21866265.841   116969843.828                                  
E14  21051857.320   110628257.285    21051857.691    84767107.826  
E03  29268004.667   153804407.561    29268012.646   117850164.849  
E34  25556230.205   134298900.849    25556231.112   102904352.316  
E05  24135428.271   126832545.570    24135429.207    97183374.436  
G04  22239184.045   116867703.793    22239181.109    91065733.126  
G09  24429731.426   128379107.735    24429735.427   100035686.895  
E27  30028074.832   157798592.202                                  
> 2025 07 22 11 30 56.0050000  0 32                     
G17  23043803.550   121095999.979    23043797.673    94360498.798  
G02  24337292.699   127893356.916                                  
G19  23483323.845   123405697.648                                  
G01  22185506.788   116585625.828    22185502.864    90845932.546  
S23  39401788.981   207057800.580  
G03  21600800.337   113512972.777    21600798.961    88451655.465  
C06  41271125.607   214909563.863                                  
C20  23381381.526   121752980.837                                  
C35  24925830.752   129795353.400                                  
C19  24382627.416   126966754.481                                  
C30  26355188.548   137238383.902                                  
C29  23160795.268   120604336.047                                  
R17  25105138.002   134342706.489    25105149.920                  
R24  21159068.726   113147035.753    21159065.206    88003241.113  
R01  20895773.255   111699878.819                                  
R08  21837873.454   116940756.935    21837872.805                  
R02  24288211.690   129606545.228    24288216.665   100805100.272  
G06  26026523.172   136770269.481    26026532.973   106574264.296  
G22  26982288.456                                                  
G31  25118825.013   132000265.901    25118825.074   102857403.259  
S36  39036074.304   205135942.612  
E36  25405439.570   133506476.533    25405439.805   102297182.355  
C09  41749348.892   217399803.710    41749341.978   168107290.563  
R22  25459370.294                                                  
R23  21866820.226   116972808.815                                  
E14  21051419.328   110625956.131    21051419.749    84765344.609  
E03  29267474.719   153801622.269    29267482.621   117848030.677  
E34  25556025.875   134297827.132    25556026.796   102903529.591  
E05  24135135.172   126831005.575    24135136.098    97182194.442  
G04  22238878.821   116866099.652    22238875.931    91064483.139  
G09  24429124.712   128375919.219    24429128.610   100033202.349  
E27  30028230.971   157799413.858                                  
> 2025 07 22 11 30 57.0050000  0 31                     
G17  23043844.103   121096213.067    23043838.178    94360664.840  
G02  24337836.399   127896214.485                                  
G19  23483002.680   123404009.812                                  
G01  22185849.753   116587428.062    22185845.851    90847336.887  
S23  39401860.550   207058176.344  
G03  21601025.071   113514153.518    21601023.653    88452575.546  
C06  41271048.947   214909164.861                                  
C20  23381612.257   121754182.832                                  
C35  24925477.622   129793514.785                                  
C19  24382341.437   126965265.284                                  
C30  26355881.372   137241991.782                                  
C29  23161094.372   120605894.108                                  
R17  25104437.180   134338956.354    25104449.538                  
R24  21158771.565   113145446.420    21158768.167    88002004.959  
R01  20895600.085   111698953.225                                  
R08  21838457.690   116943884.170    21838457.091                  
R02  24287573.535   129603140.024    24287578.406   100802451.789  
G06  26025982.024   136767426.306    26025992.009   106572048.799  
G31  25118693.806   131999560.786    25118690.922   102856853.787  
S36  39036145.362   205136316.581  
E36  25405681.324   133507747.053    25405681.717   102298155.883  
C09  41749187.131   217398962.246    41749180.385   168106639.898  
R22  25460189.433                                                  
R23  21867374.765   116975774.971                                  
E14  21050981.737   110623656.856    21050982.042    84763582.812  
E03  29266944.995   153798837.527    29266952.635   117845896.922  
E34  25555821.588   134296754.096    25555822.533   102902707.398  
E05  24134842.172   126829466.490    24134843.096    97181015.133  
G04  22238573.807   116864496.588    22238570.902    91063234.002  
G09  24428518.055   128372731.468    24428521.945   100030718.391  
E27  30028387.282   157800236.476                                  
> 2025 07 22 11 30 58.0050000  0 31                     
G17  23043884.746   121096426.715    23043878.758    94360831.309  
G02  24338380.241   127899072.275                                  
G19  23482681.637   123402322.494                                  
G01  22186192.822   116589230.621    22186188.885    90848741.454  
S23  39401931.978   207058552.068  
G03  21601249.765   113515334.543    21601248.385    88453495.801  
C06  41270972.332   214908766.082                                  
C20  23381843.206   121755385.152                                  
C35  24925124.623   129791676.442                                  
C19  24382055.520   126963776.377                                  
C30  26356574.120   137245599.706                                  
C29  23161393.587   120607452.591                                  
R17  25103736.208   134335206.155    25103747.400                  
R24  21158474.374   113143857.621    21158471.069    88000769.233  
R01  20895427.113   111698028.248                                  
R08  21839041.852   116947011.729    21839041.373                  
R02  24286935.481   129599735.027    24286940.336   100799803.439  
G06  26025440.961   136764583.068    26025451.063   106569833.293  
G31  25118560.509   131998856.058    25118556.942   102856304.665  
S36  39036216.482   205136690.555  
E36  25405923.269   133509017.774    25405923.508   102299129.558  
C09  41749025.388   217398120.916    41749018.848   168105989.361  
R22  25461008.963                                                  
R23  21867929.459   116978741.648                                  
E14  21050544.507   110621358.852    21050544.823    84761822.013  
E03  29266415.122   153796052.787    29266422.628   117843763.166  
E34  25555617.255   134295681.171    25555618.333   102901885.291  
E05  24134548.937   126827927.707    24134550.360    97179836.088  
G04  22238268.801   116862893.989    22238265.951    91061985.235  
G09  24427911.478   128369543.861    24427915.320   100028234.546  
E27  30028543.871   157801059.455                                  
> 2025 07 22 11 30 59.0050000  0 31                     
G17  23043925.692   121096641.699    23043919.725    94360998.825  
G02  24338924.392   127901931.078                                  
G19  23482360.758   123400636.506                                  
G01  22186536.129   116591034.345    22186532.102    90850146.961  
S23  39402003.538   207058928.569  
G03  21601474.729   113516516.646    21601473.466    88454416.923  
C06  41270895.949   214908368.084                                  
C20  23382074.212   121756588.582                                  
C35  24924771.903   129789839.175                                  
C19  24381769.822   126962288.543                                  
C30  26357267.138   137249208.567                                  
C29  23161693.118   120609012.299                                  
R17  25103035.392   134331456.764    25103046.199                  
R24  21158177.611   113142270.155    21158174.103    87999534.536  
R01  20895254.534   111697104.703                                  
R08  21839626.548   116950140.465    21839624.130                  
R02  24286297.581   129596331.047    24286302.494   100797155.904  
G06  26024900.012   136761740.564    26024910.254   106567618.352  
G31  25118427.241   131998152.748    25118423.366   102855756.596  
S36  39036287.718   205137065.270  
E36  25406165.570   133510289.501    25406165.359   102300103.973  
C09  41748864.141   217397280.440    41748857.366   168105339.454  
R22  25461829.936                                                  
R23  21868484.408   116981709.680                                  
E14  21050107.689   110619062.914    21050107.965    84760062.791  
E03  29265885.201   153793268.827    29265892.669   117841630.008  
E34  25555413.024   134294609.166    25555414.358   102901063.885  
E05  24134256.314   126826390.054    24134257.907    97178657.879  
G04  22237964.008   116861292.671    22237961.202    91060737.451  
G09  24427305.124   128366357.217    24427308.826   100025751.450  
E27  30028700.682   157801883.645                                  
> 2025 07 22 11 31 00.0050000  0 31                     
G17  23043966.752   121096857.870    23043960.814    94361167.286  
G02  24339468.646   127904790.710                                  
G19  23482040.202   123398951.685                                  
G01  22186879.553   116592839.068    22186875.572    90851553.225  
S23  39402075.216   207059305.562  
G03  21601699.909   113517699.665    21601698.607    88455338.763  
C06  41270819.732   214907970.973                                  
C20  23382305.365   121757792.966                                  
C35  24924419.273   129788002.836                                  
C19  24381484.244   126960801.647                                  
C30  26357960.391   137252818.115                                  
C29  23161992.894   120610573.088                                  
R17  25102334.817   134327707.983    25102346.050                  
R24  21157881.004   113140683.839    21157877.597    87998300.735  
R01  20895082.117   111696182.458                                  
R08  21840211.372   116953270.272    21840208.485                  
R02  24285659.855   129592927.925    24285664.758   100794509.064  
G06  26024359.143   136758898.692    26024369.372   106565403.903  
G31  25118294.027   131997450.561    25118289.747   102855209.396  
S36  39036359.141   205137440.642  
E36  25406407.754   133511562.056    25406407.520   102301079.068  
C09  41748703.093   217396440.679    41748696.113   168104690.106  
R22  25462649.595                                                  
R23  21869039.542   116984678.872                                  
E14  21049670.808   110616768.893    21049671.434    84758305.045  
E03  29265355.489   153790485.477    29265363.045   117839497.308  
E34  25555209.200   134293537.872    25555210.496   102900243.030  
E05  24133964.061   126824853.340    24133965.349    97177480.395  
G04  22237659.419   116859692.482    22237656.680    91059490.565  
G09  24426699.004   128363171.398    24426702.506   100023269.010  
E27  30028857.156   157802708.804                                  
> 2025 07 22 11 31 01.0050000  0 31                     
G17  23044008.108   121097075.581    23044002.311    94361336.926  
G02  24340013.100   127907651.582                                  
G19  23481719.847   123397268.382                                  
G01  22187223.202   116594645.102    22187219.257    90852960.525  
S23  39402147.056   207059683.485  
G03  21601925.241   113518883.948    21601923.895    88456261.605  
C06  41270743.678   214907574.896                                  
C20  23382536.765   121758998.666                                  
C35  24924066.877   129786167.756                                  
C19  24381199.107   126959316.031                                  
C30  26358653.756   137256428.781                                  
C29  23162292.802   120612135.294                                  
R17  25101634.291   134323960.116    25101646.027                  
R24  21157584.685   113139099.031    21157581.264    87997068.097  
R01  20894909.901   111695261.860                                  
R08  21840796.557   116956401.379    21840793.540                  
R02  24285022.402   129589526.109    24285027.184   100791863.220  
G06  26023818.390   136756057.732    26023828.760   106563190.161  
G31  25118160.589   131996749.884    25118156.223   102854663.391  
S36  39036430.740   205137816.936  
E36  25406650.108   133512835.778    25406649.968   102302055.039  
C09  41748542.133   217395602.006    41748535.077   168104041.599  
R22  25463471.216                                                  
R23  21869594.923   116987649.646                                  
E14  21049234.495   110614477.126    21049235.275    84756549.025  
E03  29264825.979   153787703.121    29264833.428   117837365.400  
E34  25555005.365   134292467.685    25555007.060   102899423.009  
E05  24133671.853   126823317.923    24133673.102    97176303.917  
G04  22237355.141   116858093.759    22237352.484    91058244.799  
G09  24426093.063   128359986.728    24426096.353   100020787.451  
E27  30029014.248   157803535.345                                  
> 2025 07 22 11 31 02.0050000  0 31                     
G17  23044049.785   121097294.674    23044043.936    94361507.636  
G02  24340557.764   127910513.459                                  
G19  23481399.819   123395586.446                                  
G01  22187567.120   116596452.350    22187563.182    90854368.769  
S23  39402219.268   207060062.254  
G03  21602150.894   113520069.342    21602149.493    88457185.256  
C06  41270667.758   214907179.777                                  
C20  23382768.480   121760205.518                                  
C35  24923714.598   129784333.775                                  
C19  24380914.115   126957831.525                                  
C30  26359347.391   137260040.417                                  
C29  23162593.026   120613698.735                                  
R17  25100933.995   134320213.028    25100944.782                  
R24  21157288.660   113137515.631    21157285.086    87995836.573  
R01  20894738.021   111694342.742                                  
R08  21841381.953   116959533.761    21841375.873                  
R02  24284385.197   129586125.448    24284389.968   100789218.272  
G06  26023277.808   136753217.565    26023288.317   106560977.042  
G31  25118027.425   131996050.512    25118023.053   102854118.472  
S36  39036502.516   205138193.986  
E36  25406892.499   133514110.513    25406892.456   102303031.772  
C09  41748381.225   217394764.228    41748374.082   168103393.744  
R22  25464293.471                                                  
R23  21870150.591   116990621.784                                  
E14  21048798.668   110612187.479    21048799.686    84754794.620  
E03  29264296.829   153784921.559    29264304.193   117835234.058  
E34  25554801.764   134291398.438    25554803.532   102898603.717  
E05  24133379.716   126821783.648    24133381.111    97175128.310  
G04  22237051.088   116856496.347    22237048.501    91057000.060  
G09  24425487.348   128356803.025    24425490.426   100018306.650  
E27  30029171.237   157804363.065                                  
> 2025 07 22 11 31 03.0050000  0 31                     
G17  23044091.668   121097515.342    23044085.881    94361679.599  
G02  24341102.607   127913376.589                                  
G19  23481079.977   123393906.068                                  
G01  22187911.325   116598260.949    22187907.326    90855778.052  
S23  39402291.561   207060441.953  
G03  21602376.710   113521256.037    21602375.261    88458109.978  
C06  41270592.014   214906785.858                                  
C20  23383000.485   121761413.697                                  
C35  24923362.631   129782501.110                                  
C19  24380629.407   126956348.338                                  
C30  26360041.063   137263653.030                                  
C29  23162893.577   120615263.635                                  
R17  25100233.926   134316466.964    25100243.629                  
R24  21156992.956   113135933.846    21156989.394    87994606.296  
R01  20894566.476   111693425.310                                  
R08  21841967.421   116962667.590    21841960.687                  
R02  24283748.148   129582726.116    24283753.015   100786574.326  
G06  26022737.450   136750378.334    26022747.927   106558764.662  
G31  25117894.703   131995352.725    25117890.495   102853574.748  
S36  39036574.345   205138571.950  
E36  25407135.434   133515386.502    25407135.216   102304009.468  
C09  41748220.744   217393927.580    41748213.458   168102746.808  
R22  25465115.346                                                  
R23  21870706.592   116993595.534                                  
E14  21048363.482   110609900.120    21048364.305    84753041.957  
E03  29263767.521   153782141.027    29263775.201   117833103.563  
E34  25554598.701   134290330.298    25554600.238   102897785.272  
E05  24133087.921   126820250.706    24133089.472    97173953.716  
G04  22236747.461   116854900.437    22236744.801    91055756.504  
G09  24424881.783   128353620.537    24424884.706   100015826.793  
E27  30029328.831   157805192.199                                  
> 2025 07 22 11 31 04.0050000  0 31                     
G17  23044133.759   121097736.827    23044128.091    94361852.204  
G02  24341647.450   127916240.195                                  
G19  23480760.429   123392226.490                                  
G01  22188255.632   116600070.214    22188251.713    90857187.856  
S23  39402363.875   207060821.898  
G03  21602602.701   113522443.279    21602601.259    88459035.090  
C06  41270516.517   214906392.218                                  
C20  23383232.621   121762622.470                                  
C35  24923010.868   129780668.990                                  
C19  24380344.667   126954865.730                                  
C30  26360735.124   137267266.172                                  
C29  23163194.148   120616829.254                                  
R17  25099533.912   134312721.110    25099542.769                  
R24  21156697.238   113134352.880    21156693.723    87993376.656  
R01  20894395.088   111692508.796                                  
R08  21842553.168   116965802.116    21842546.059                  
R02  24283111.146   129579327.221    24283116.067   100783930.749  
G06  26022197.169   136747539.351    26022207.725   106556552.468  
G31  25117761.879   131994655.644    25117758.029   102853031.630  
S36  39036646.292   205138950.107  
E36  25407378.387   133516662.926    25407378.196   102304987.539  
C09  41748060.229   217393091.305    41748052.912   168102100.105  
R22  25465936.898                                                  
R23  21871262.771   116996570.088                                  
E14  21047928.619   110607614.326    21047929.398    84751290.503  
E03  29263238.417   153779360.735    29263246.473   117830973.227  
E34  25554395.582   134289262.555    25554396.983   102896967.135  
E05  24132796.321   126818718.361    24132797.866    97172779.583  
G04  22236443.965   116853305.285    22236441.291    91054513.522  
G09  24424276.229   128350438.478    24424279.136   100013347.272  
E27  30029486.105   157806021.959                                  
> 2025 07 22 11 31 05.0050000  0 31                     
G17  23044176.034   121097959.598    23044170.497    94362025.777  
G02  24342192.652   127919104.778                                  
G19  23480441.079   123390548.175                                  
G01  22188600.190   116601880.530    22188596.247    90858598.487  
S23  39402436.269   207061202.445  
G03  21602828.770   113523631.554    21602827.318    88459961.011  
C06  41270441.190   214905999.559                                  
C20  23383464.882   121763832.300                                  
C35  24922659.163   129778837.891                                  
C19  24380060.083   126953384.135                                  
C30  26361429.156   137270880.094                                  
C29  23163494.946   120618396.040                                  
R17  25098834.030   134308975.927    25098842.672                  
R24  21156401.834   113132773.220    21156398.288    87992148.026  
R01  20894223.944   111691593.686                                  
R08  21843139.250   116968937.808    21843130.404                  
R02  24282474.386   129575929.269    24282479.280   100781287.892  
G06  26021657.045   136744701.042    26021667.581   106554340.806  
G31  25117629.481   131993959.915    25117625.796   102852489.453  
S36  39036718.319   205139328.899  
E36  25407621.219   133517940.292    25407621.249   102305966.296  
C09  41747899.863   217392255.799    41747892.444   168101454.070  
R22  25466761.011                                                  
R23  21871819.151   116999545.946                                  
E14  21047493.818   110605330.526    21047494.836    84749540.571  
E03  29262709.480   153776581.159    29262717.716   117828843.405  
E34  25554192.681   134288195.634    25554194.095   102896149.613  
E05  24132505.064   126817187.056    24132506.445    97171606.239  
G04  22236140.711   116851711.357    22236137.901    91053271.491  
G09  24423670.877   128347257.335    24423673.769   100010868.459  
E27  30029643.707   157806852.878                                  
> 2025 07 22 11 31 06.0050000  0 31                     
G17  23044218.692   121098183.907    23044213.119    94362200.550  
G02  24342737.999   127921970.548                                  
G19  23480121.989   123388871.383                                  
G01  22188945.079   116603692.163    22188941.037    90860010.162  
S23  39402508.886   207061583.965  
G03  21603055.114   113524821.081    21603053.690    88460887.936  
C06  41270366.013   214905607.952                                  
C20  23383697.451   121765043.420                                  
C35  24922307.742   129777008.054                                  
C19  24379775.798   126951903.809                                  
C30  26362123.231   137274495.058                                  
C29  23163796.223   120619964.234                                  
R17  25098134.316   134305231.741    25098142.394                  
R24  21156106.751   113131195.099    21156103.225    87990920.603  
R01  20894053.100   111690680.206                                  
R08  21843725.437   116972074.796    21843715.214                  
R02  24281837.872   129572532.518    24281842.851   100778645.990  
G06  26021117.073   136741863.710    26021127.621   106552129.866  
G31  25117497.272   131993265.628    25117493.606   102851948.457  
S36  39036790.581   205139708.584  
E36  25407864.204   133519218.837    25407864.544   102306945.958  
C09  41747739.919   217391421.379    41747732.253   168100808.870  
R22  25467584.287                                                  
R23  21872375.879   117002523.317                                  
E14  21047059.641   110603048.978    21047060.732    84747792.384  
E03  29262180.824   153773802.568    29262188.947   117826714.368  
E34  25553989.762   134287129.790    25553991.189   102895332.943  
E05  24132214.000   126815657.049    24132215.262    97170433.903  
G04  22235837.580   116850118.881    22235834.905    91052030.619  
G09  24423065.738   128344077.320    24423068.522   100008390.531  
E27  30029801.318   157807685.098                                  
> 2025 07 22 11 31 07.0050000  0 31                     
G17  23044261.593   121098409.526    23044256.028    94362376.375  
G02  24343283.613   127924837.318                                  
G19  23479803.144   123387195.888                                  
G01  22189290.108   116605504.971    22189285.985    90861422.746  
S23  39402581.527   207061966.227  
G03  21603281.757   113526011.665    21603280.251    88461815.627  
C06  41270290.905   214905217.233                                  
C20  23383930.224   121766255.636                                  
C35  24921956.855   129775179.272                                  
C19  24379491.777   126950424.567                                  
C30  26362817.349   137278110.964                                  
C29  23164097.532   120621533.631                                  
R17  25097434.726   134301488.310    25097441.548                  
R24  21155812.056   113129618.334    21155808.222    87989694.215  
R01  20893882.599   111689768.174                                  
R08  21844311.842   116975213.025    21844301.539                  
R02  24281201.557   129569136.834    24281206.472   100776004.937  
G06  26020577.231   136739027.068    26020587.823   106549919.476  
G31  25117365.061   131992572.634    25117361.682   102851408.503  
S36  39036862.981   205140089.038  
E36  25408107.501   133520498.374    25408108.070   102307926.373  
C09  41747579.968   217390587.810    41747572.127   168100164.302  
R22  25468407.494                                                  
R23  21872932.846   117005502.069                                  
E14  21046625.748   110600769.483    21046626.885    84746045.769  
E03  29261652.275   153771024.726    29261660.379   117824585.900  
E34  25553787.112   134286064.846    25553788.634   102894516.941  
E05  24131923.336   126814128.130    24131924.279    97169262.391  
G04  22235534.684   116848527.670    22235532.105    91050790.711  
G09  24422460.768   128340898.268    24422463.459   100005913.348  
E27  30029959.186   157808518.486                                  
> 2025 07 22 11 31 08.0050000  0 31                     
G17  23044304.725   121098636.403    23044299.063    94362553.158  
G02  24343829.311   127927704.972                                  
G19  23479484.527   123385521.643                                  
G01  22189635.466   116607318.811    22189631.167    90862836.130  
S23  39402654.363   207062349.067  
G03  21603508.492   113527203.237    21603506.988    88462744.167  
C06  41270216.010   214904827.430                                  
C20  23384163.028   121767468.896                                  
C35  24921605.952   129773351.470                                  
C19  24379208.028   126948946.318                                  
C30  26363511.781   137281727.637                                  
C29  23164398.964   120623104.162                                  
R17  25096735.242   134297745.494    25096740.535                  
R24  21155517.380   113128042.820    21155513.552    87988468.812  
R01  20893712.307   111688857.506                                  
R08  21844898.442   116978352.281    21844887.400                  
R02  24280565.478   129565742.157    24280570.297   100773364.622  
G06  26020037.474   136736191.092    26020048.229   106547709.660  
G31  25117233.128   131991880.905    25117230.016   102850869.445  
S36  39036935.413   205140470.240  
E36  25408351.171   133521778.804    25408351.825   102308907.476  
C09  41747419.984   217389755.047    41747412.162   168099520.351  
R22  25469230.430                                                  
R23  21873489.991   117008482.068                                  
E14  21046192.932   110598491.989    21046193.375    84744300.658  
E03  29261123.661   153768247.591    29261131.929   117822457.934  
E34  25553584.496   134285000.707    25553586.294   102893701.564  
E05  24131632.664   126812600.228    24131633.348    97168091.672  
G04  22235232.030   116846937.656    22235229.585    91049551.743  
G09  24421855.913   128337720.082    24421858.664   100003436.849  
E27  30030117.285   157809352.976                                  
> 2025 07 22 11 31 09.0050000  0 31                     
G17  23044348.148   121098864.754    23044342.523    94362731.077  
G02  24344375.104   127930573.777                                  
G19  23479166.147   123383848.828                                  
G01  22189980.865   116609133.930    22189976.554    90864250.504  
S23  39402727.374   207062732.782  
G03  21603735.505   113528395.999    21603733.889    88463673.518  
C06  41270141.378   214904438.596                                  
C20  23384396.279   121768683.378                                  
C35  24921255.068   129771524.864                                  
C19  24378924.536   126947469.265                                  
C30  26364206.211   137285345.252                                  
C29  23164700.702   120624676.042                                  
R17  25096036.027   134294003.573    25096039.942                  
R24  21155222.932   113126468.715    21155219.329    87987244.543  
R01  20893542.205   111687948.373                                  
R08  21845485.296   116981492.892    21845475.523                  
R02  24279929.510   129562348.653    24279934.345   100770725.221  
G06  26019497.950   136733355.980    26019508.692   106545500.444  
G31  25117101.547   131991190.596    25117098.705   102850331.581  
S36  39037008.106   205140852.164  
E36  25408595.153   133523060.311    25408595.721   102309889.427  
C09  41747260.269   217388923.283    41747252.439   168098877.205  
R22  25470054.283                                                  
R23  21874047.402   117011463.560                                  
E14  21045760.105   110596216.669    21045760.495    84742557.240  
E03  29260595.444   153765471.335    29260603.806   117820330.687  
E34  25553382.314   134283937.573    25553383.937   102892886.953  
E05  24131342.308   126811073.551    24131342.980    97166921.885  
G04  22234929.735   116845349.030    22234927.337    91048313.851  
G09  24421251.327   128334542.973    24421254.148   100000961.200  
E27  30030275.704   157810188.736                                  
> 2025 07 22 11 31 10.0050000  0 31                     
G17  23044391.810   121099094.305    23044386.184    94362909.949  
G02  24344921.118   127933443.437                                  
G19  23478848.005   123382177.200                                  
G01  22190326.377   116610950.057    22190322.192    90865665.660  
S23  39402800.424   207063117.111  
G03  21603962.799   113529589.705    21603961.102    88464603.700  
C06  41270066.836   214904050.499                                  
C20  23384629.783   121769898.835                                  
C35  24920904.522   129769699.193                                  
C19  24378641.222   126945993.181                                  
C30  26364900.835   137288963.713                                  
C29  23165002.610   120626249.004                                  
R17  25095336.853   134290262.241    25095340.727                  
R24  21154928.661   113124895.848    21154925.329    87986021.195  
R01  20893372.359   111687040.560                                  
R08  21846072.387   116984634.529    21846062.406                  
R02  24279293.722   129558956.046    24279298.633   100768086.548  
G06  26018958.545   136730521.445    26018969.277   106543291.743  
G31  25116970.041   131990501.435    25116967.303   102849794.601  
S36  39037080.912   205141234.668  
E36  25408838.926   133524342.705    25408839.620   102310872.042  
C09  41747100.650   217388092.298    41747092.798   168098234.616  
R22  25470877.061                                                  
R23  21874605.017   117014446.231                                  
E14  21045327.608   110593943.310    21045327.946    84740815.309  
E03  29260067.210   153762695.735    29260075.687   117818203.952  
E34  25553180.097   134282875.206    25553181.761   102892072.930  
E05  24131052.033   126809547.855    24131052.567    97165752.837  
G04  22234627.708   116843761.559    22234625.288    91047076.862  
G09  24420646.804   128331366.702    24420649.628    99998486.180  
E27  30030434.364   157811025.531                                  
> 2025 07 22 11 31 11.0050000  0 31                     
G17  23044435.749   121099324.885    23044430.086    94363089.645  
G02  24345467.336   127936313.828                                  
G19  23478530.061   123380506.592                                  
G01  22190672.226   116612767.023    22190668.028    90867081.492  
S23  39402873.759   207063501.872  
G03  21604190.202   113530784.174    21604188.310    88465534.464  
C06  41269992.242   214903663.079                                  
C20  23384863.246   121771115.091                                  
C35  24920554.037   129767874.305                                  
C19  24378357.962   126944517.860                                  
C30  26365595.795   137292582.719                                  
C29  23165304.869   120627822.896                                  
R17  25094637.858   134286521.403    25094639.433                  
R24  21154634.757   113123324.034    21154631.453    87984798.655  
R01  20893202.769   111686133.869                                  
R08  21846659.493   116987777.057    21846649.406                  
R02  24278657.992   129555564.209    24278663.032   100765448.445  
G06  26018419.124   136727687.381    26018429.926   106541083.359  
G31  25116838.905   131989813.307    25116836.147   102849258.409  
S36  39037153.782   205141617.774  
E36  25409083.141   133525625.775    25409083.948   102311855.175  
C09  41746941.085   217387261.835    41746933.372   168097592.424  
R22  25471700.308                                                  
R23  21875162.732   117017429.962                                  
E14  21044895.601   110591671.696    21044895.621    84739074.723  
E03  29259538.946   153759920.608    29259547.538   117816077.575  
E34  25552978.153   134281813.464    25552979.725   102891259.378  
E05  24130761.987   126808022.959    24130762.413    97164584.410  
G04  22234325.728   116842175.054    22234323.380    91045840.617  
G09  24420042.495   128328191.069    24420045.359    99996011.670  
E27  30030593.176   157811863.198                                  
> 2025 07 22 11 31 12.0050000  0 31                     
G17  23044479.841   121099556.686    23044474.161    94363270.239  
G02  24346013.639   127939185.063                                  
G19  23478212.311   123378837.166                                  
G01  22191018.160   116614584.999    22191014.053    90868498.097  
S23  39402947.045   207063887.203  
G03  21604417.631   113531979.596    21604415.737    88466465.970  
C06  41269918.015   214903276.440                                  
C20  23385096.919   121772332.341                                  
C35  24920203.856   129766050.337                                  
C19  24378074.741   126943043.505                                  
C30  26366290.806   137296202.561                                  
C29  23165607.386   120629397.882                                  
R17  25093938.858   134282781.146    25093939.477                  
R24  21154340.934   113121753.435    21154337.701    87983577.093  
R01  20893033.392   111685228.475                                  
R08  21847246.836   116990920.669    21847239.071                  
R02  24278022.471   129552173.210    24278027.495   100762811.014  
G06  26017879.868   136724853.952    26017890.691   106538875.494  
G31  25116707.958   131989126.390    25116705.242   102848723.131  
S36  39037226.820   205142001.448  
E36  25409327.235   133526909.745    25409328.235   102312838.962  
C09  41746781.767   217386432.152    41746773.915   168096950.892  
R22  25472522.619                                                  
R23  21875720.616   117020414.879                                  
E14  21044463.780   110589402.032    21044463.701    84737335.615  
E03  29259011.046   153757146.119    29259019.448   117813951.670  
E34  25552776.402   134280752.432    25552777.959   102890446.395  
E05  24130472.055   126806499.018    24130472.436    97163416.727  
G04  22234024.094   116840589.682    22234021.652    91044605.275  
G09  24419438.385   128325016.275    24419441.309    99993537.809  
E27  30030751.686   157812701.887                                  
> 2025 07 22 11 31 13.0050000  0 31                     
G17  23044524.323   121099790.107    23044518.483    94363452.142  
G02  24346560.223   127942057.613                                  
G19  23477894.905   123377169.365                                  
G01  22191364.304   116616404.409    22191360.354    90869915.832  
S23  39403020.681   207064273.587  
G03  21604645.411   113533176.384    21604643.506    88467398.538  
C06  41269844.006   214902891.018                                  
C20  23385330.862   121773550.978                                  
C35  24919853.678   129764227.752                                  
C19  24377791.893   126941570.507                                  
C30  26366985.938   137299823.474                                  
C29  23165910.160   120630974.362                                  
R17  25093240.063   134279041.980    25093240.375                  
R24  21154047.605   113120184.490    21154044.258    87982356.795  
R01  20892864.230   111684324.848                                  
R08  21847834.276   116994065.773    21847826.080                  
R02  24277387.249   129548783.561    24277392.232   100760174.629  
G06  26017340.818   136722021.506    26017351.689   106536668.411  
G31  25116577.403   131988441.030    25116574.727   102848189.070  
S36  39037300.013   205142386.004  
E36  25409571.626   133528194.943    25409572.731   102313823.736  
C09  41746622.800   217385603.645    41746614.902   168096310.209  
R22  25473347.940                                                  
R23  21876278.797   117023401.435                                  
E14  21044032.406   110587134.718    21044032.206    84735598.326  
E03  29258483.307   153754372.705    29258491.627   117811826.597  
E34  25552574.983   134279692.601    25552576.177   102889634.316  
E05  24130182.397   126804976.493    24130182.594    97162250.114  
G04  22233722.751   116839005.888    22233720.237    91043371.142  
G09  24418834.450   128321842.736    24418837.334    99991064.922  
E27  30030910.547   157813541.981                                  
> 2025 07 22 11 31 14.0050000  0 32                     
G17  23044568.888   121100024.701    23044563.124    94363634.956  
G02  24347107.084   127944930.987                                  
G19  23477577.740   123375502.725                                  
G01  22191710.834   116618224.812    22191706.757    90871334.336  
S23  39403094.288   207064660.498  
G03  21604873.330   113534374.039    21604871.459    88468331.754  
C06  41269770.207   214902506.295                                  
C20  23385564.872   121774770.560                                  
C35  24919503.823   129762406.055                                  
C19  24377509.150   126940098.426                                  
C30  26367681.064   137303445.137                                  
C29  23166213.000   120632551.904                                  
R17  25092541.468   134275303.411    25092541.480                  
R24  21153754.347   113118616.726    21153751.084    87981137.427  
R01  20892695.365   111683422.495                                  
R08  21848421.816   116997211.851    21848415.490                  
R02  24276752.091   129545394.772    24276757.280   100757538.931  
G06  26016801.939   136719189.655    26016812.837   106534461.770  
G22  26990854.209                                                  
G31  25116446.856   131987756.847    25116444.542   102847655.959  
S36  39037373.247   205142771.133  
E36  25409816.214   133529480.961    25409817.452   102314809.138  
C09  41746463.879   217384775.797    41746455.955   168095670.075  
R22  25474169.083                                                  
R23  21876837.304   117026389.168                                  
E14  21043601.501   110584869.300    21043601.204    84733862.490  
E03  29257955.550   153751599.891    29257963.894   117809701.987  
E34  25552373.462   134278633.504    25552374.715   102888822.793  
E05  24129893.037   126803454.889    24129893.072    97161084.203  
G04  22233421.565   116837423.182    22233419.103    91042137.873  
G09  24418230.703   128318669.978    24418233.615    99988592.653  
E27  30031069.880   157814383.089                                  
> 2025 07 22 11 31 15.0050000  0 32                     
G17  23044613.835   121100260.645    23044608.017    94363818.797  
G02  24347653.969   127947805.351                                  
G19  23477260.676   123373837.402                                  
G01  22192057.400   116620046.342    22192053.404    90872753.698  
S23  39403167.997   207065048.169  
G03  21605101.391   113535572.791    21605099.604    88469265.840  
C06  41269696.354   214902122.510                                  
C20  23385799.153   121775991.229                                  
C35  24919154.237   129760585.436                                  
C19  24377226.716   126938627.435                                  
C30  26368376.387   137307067.773                                  
C29  23166516.196   120634130.667                                  
R17  25091842.959   134271565.568    25091842.037                  
R24  21153461.458   113117050.336    21153458.256    87979919.146  
R01  20892526.810   111682521.594                                  
R08  21849009.601   117000359.134    21849004.278                  
R02  24276117.271   129542007.065    24276122.476   100754904.068  
G06  26016263.196   136716358.551    26016274.083   106532255.688  
G22  26991319.906   141840342.4893                                 
G31  25116316.606   131987073.936    25116314.662   102847123.844  
S36  39037446.723   205143157.077  
E36  25410060.951   133530767.978    25410062.376   102315795.272  
C09  41746304.983   217383948.844    41746297.156   168095030.631  
R22  25474993.625                                                  
R23  21877396.028   117029378.224                                  
E14  21043170.768   110582605.949    21043170.474    84732128.233  
E03  29257428.077   153748827.861    29257436.248   117807577.958  
E34  25552172.043   134277575.303    25552173.262   102888011.975  
E05  24129603.820   126801934.393    24129603.633    97159919.162  
G04  22233120.677   116835841.773    22233118.199    91040905.602  
G09  24417627.097   128315498.168    24417629.969    99986121.116  
E27  30031229.498   157815225.383                                  
> 2025 07 22 11 31 16.0050000  0 32                     
G17  23044659.006   121100497.849    23044653.166    94364003.639  
G02  24348201.175   127950680.699                                  
G19  23476943.950   123372173.350                                  
G01  22192404.289   116621868.971    22192400.287    90874173.915  
S23  39403241.977   207065436.553  
G03  21605329.776   113536772.548    21605327.826    88470200.720  
C06  41269622.742   214901739.562                                  
C20  23386033.712   121777212.984                                  
C35  24918804.947   129758765.827                                  
C19  24376944.452   126937157.477                                  
C30  26369072.105   137310691.127                                  
C29  23166819.672   120635710.598                                  
R17  25091144.601   134267828.423    25091139.659                  
R24  21153168.661   113115485.236    21153165.634    87978701.828  
R01  20892358.562   111681622.078                                  
R08  21849597.800   117003507.483    21849592.198                  
R02  24275482.640   129538620.333    24275487.705   100752269.956  
G06  26015724.571   136713528.130    26015735.323   106530050.152  
G22  26991795.998   141842855.1892                                 
G31  25116186.827   131986392.332    25116184.978   102846592.707  
S36  39037520.244   205143543.723  
E36  25410306.164   133532055.913    25410307.638   102316782.165  
C09  41746146.357   217383122.703    41746138.484   168094391.836  
R22  25475817.646                                                  
R23  21877954.930   117032368.637                                  
E14  21042740.451   110580344.619    21042740.161    84730395.523  
E03  29256900.676   153746056.556    29256908.883   117805454.507  
E34  25551970.964   134276517.946    25551971.953   102887201.776  
E05  24129314.777   126800414.946    24129314.443    97158754.900  
G04  22232820.000   116834261.561    22232817.536    91039674.268  
G09  24417023.735   128312327.276    24417026.589    99983650.278  
E27  30031389.166   157816068.800                                  
> 2025 07 22 11 31 17.0050000  0 32                     
G17  23044704.396   121100736.556    23044698.595    94364189.620  
G02  24348748.550   127953557.205                                  
G19  23476627.542   123370510.763                                  
G01  22192751.457   116623692.876    22192747.462    90875595.150  
S23  39403315.957   207065825.793  
G03  21605558.413   113537973.526    21605556.303    88471136.535  
C06  41269549.282   214901357.693                                  
C20  23386268.510   121778435.991                                  
C35  24918455.825   129756947.428                                  
C19  24376662.516   126935688.721                                  
C30  26369767.956   137314315.516                                  
C29  23167123.297   120637291.888                                  
R17  25090446.352   134264092.185    25090442.974                  
R24  21152876.269   113113921.591    21152873.210    87977485.676  
R01  20892190.547   111680724.145                                  
R08  21850186.124   117006657.180    21850184.408                  
R02  24274848.168   129535234.832    24274853.297   100749636.788  
G06  26015186.154   136710698.585    26015196.759   106527845.348  
G22  26992276.624   141845369.0822                                 
G31  25116057.252   131985712.114    25116055.503   102846062.715  
S36  39037593.948   205143931.222  
E36  25410551.290   133533344.992    25410552.903   102317769.870  
C09  41745987.904   217382297.598    41745979.964   168093753.826  
R22  25476642.113                                                  
R23  21878514.197   117035360.490                                  
E14  21042310.744   110578085.519    21042310.097    84728664.517  
E03  29256373.365   153743286.155    29256381.807   117803331.738  
E34  25551770.093   134275461.616    25551770.850   102886392.391  
E05  24129025.890   126798896.759    24129025.623    97157591.613  
G04  22232519.616   116832682.783    22232517.127    91038444.038  
G09  24416420.578   128309157.485    24416423.340    99981180.333  
E27  30031549.601   157816913.553                                  
> 2025 07 22 11 31 18.0050000  0 32                     
G17  23044750.054   121100976.450    23044744.370    94364376.552  
G02  24349296.129   127956434.543                                  
G19  23476311.405   123368849.356                                  
G01  22193098.652   116625517.783    22193094.785    90877017.169  
S23  39403390.055   207066215.591  
G03  21605787.075   113539175.407    21605785.156    88472073.113  
C06  41269476.053   214900976.565                                  
C20  23386503.443   121779659.937                                  
C35  24918106.845   129755129.964                                  
C19  24376380.646   126934220.924                                  
C30  26370464.005   137317940.737                                  
C29  23167427.325   120638874.256                                  
R17  25089748.282   134260356.560    25089744.756                  
R24  21152584.113   113112359.124    21152581.170    87976270.406  
R01  20892022.731   111679827.530                                  
R08  21850774.532   117009807.967    21850774.355                  
R02  24274213.926   129531850.218    24274218.999   100747004.342  
G06  26014647.877   136707869.668    26014658.314   106525640.940  
G22  26992754.269   141847883.5832                                 
G31  25115928.072   131985033.126    25115926.199   102845533.573  
S36  39037667.669   205144319.271  
E36  25410796.565   133534634.908    25410798.211   102318758.243  
C09  41745829.503   217381473.170    41745821.550   168093116.339  
R22  25477464.408                                                  
R23  21879073.660   117038353.542                                  
E14  21041881.283   110575828.313    21041880.549    84726934.967  
E03  29255846.611   153740516.403    29255854.832   117801209.479  
E34  25551569.215   134274406.041    25551570.154   102885583.575  
E05  24128737.157   126797379.506    24128736.884    97156429.049  
G04  22232219.443   116831105.120    22232216.812    91037214.693  
G09  24415817.575   128305988.497    24415820.177    99978710.987  
E27  30031710.284   157817759.271                                  
> 2025 07 22 11 31 19.0050000  0 32                     
G17  23044795.913   121101217.581    23044790.231    94364564.449  
G02  24349843.895   127959312.772                                  
G19  23475995.548   123367189.167                                  
G01  22193446.066   116627343.720    22193442.244    90878439.994  
S23  39403464.292   207066606.059  
G03  21606015.926   113540378.293    21606014.058    88473010.383  
C06  41269402.938   214900596.301                                  
C20  23386738.527   121780884.881                                  
C35  24917757.984   129753313.471                                  
C19  24376098.952   126932754.108                                  
C30  26371160.424   137321566.619                                  
C29  23167731.352   120640457.747                                  
R17  25089050.336   134256621.601    25089047.190                  
R24  21152292.058   113110797.901    21152289.328    87975056.119  
R01  20891855.242   111678932.253                                  
R08  21851363.351   117012959.882    21851362.495                  
R02  24273579.764   129528466.595    24273584.977   100744372.600  
G06  26014109.661   136705041.333    26014120.124   106523437.121  
G22  26993236.433   141850398.9372                                 
G31  25115798.793   131984355.301    25115797.321   102845005.425  
S36  39037741.633   205144707.954  
E36  25411042.427   133535925.740    25411044.026   102319747.300  
C09  41745671.244   217380649.614    41745663.408   168092479.496  
R22  25478288.498                                                  
R23  21879633.361   117041347.835                                  
E14  21041451.810   110573573.095    21041451.404    84725206.942  
E03  29255319.404   153737747.312    29255327.932   117799087.720  
E34  25551368.609   134273351.256    25551369.392   102884775.350  
E05  24128448.575   126795863.278    24128448.295    97155267.266  
G04  22231919.495   116829528.641    22231916.790    91035986.262  
G09  24415214.600   128302820.383    24415217.155    99976242.319  
E27  30031871.291   157818606.079                                  
> 2025 07 22 11 31 20.0050000  0 32                     
G17  23044842.194   121101460.283    23044836.442    94364753.561  
G02  24350391.832   127962192.237                                  
G19  23475679.915   123365530.533                                  
G01  22193793.786   116629171.047    22193789.953    90879863.870  
S23  39403538.836   207066997.465  
G03  21606245.024   113541582.440    21606243.189    88473948.688  
C06  41269330.063   214900217.124                                  
C20  23386974.125   121782111.171                                  
C35  24917409.469   129751498.262                                  
C19  24375817.424   126931288.576                                  
C30  26371856.924   137325193.713                                  
C29  23168035.971   120642042.671                                  
R17  25088352.586   134252887.606    25088349.027                  
R24  21152000.330   113109238.300    21151997.650    87973843.103  
R01  20891688.100   111678038.649                                  
R08  21851952.309   117016113.089    21851950.818                  
R02  24272945.924   129525084.190    24272951.107   100741741.874  
G06  26013571.564   136702213.995    26013582.026   106521233.955  
G22  26993707.493   141852914.9601                                 
G31  25115669.917   131983679.008    25115668.680   102844478.458  
S36  39037815.702   205145097.613  
E36  25411288.394   133537217.733    25411289.855   102320737.281  
C09  41745513.317   217379827.066    41745505.466   168091843.453  
R22  25479111.576                                                  
R23  21880193.321   117044343.687                                  
E14  21041022.740   110571320.157    21041022.738    84723480.664  
E03  29254792.527   153734979.231    29254801.137   117796966.716  
E34  25551168.436   134272297.580    25551168.954   102883967.993  
E05  24128160.272   126794348.359    24128159.997    97154106.483  
G04  22231619.766   116827953.638    22231617.161    91034758.997  
G09  24414611.902   128299653.421    24414614.471    99973774.579  
E27  30032033.158   157819454.272                                  
> 2025 07 22 11 31 21.0050000  0 32                     
G17  23044888.777   121101704.526    23044882.899    94364943.884  
G02  24350939.938   127965072.929                                  
G19  23475364.703   123363873.453                                  
G01  22194141.690   116630999.759    22194138.037    90881288.816  
S23  39403613.643   207067389.828  
G03  21606474.368   113542787.899    21606472.540    88474887.994  
C06  41269257.428   214899839.091                                  
C20  23387209.848   121783338.787                                  
C35  24917061.054   129749684.345                                  
C19  24375536.117   126929824.364                                  
C30  26372553.687   137328821.870                                  
C29  23168340.679   120643629.034                                  
R17  25087654.990   134249154.564    25087651.596                  
R24  21151709.024   113107680.335    21151706.307    87972631.346  
R01  20891521.069   111677146.691                                  
R08  21852541.381   117019267.754    21852540.611                  
R02  24272312.224   129521703.088    24272317.547   100739112.126  
G06  26013033.702   136699387.628    26013044.038   106519031.584  
G22  26994183.826   141855432.450                                  
G31  25115541.341   131983004.251    25115540.249   102843952.723  
S36  39037890.056   205145488.198  
E36  25411534.671   133538510.981    25411535.859   102321728.185  
C09  41745355.505   217379005.670    41745347.733   168091208.313  
R22  25479934.673                                                  
R23  21880753.688   117047341.136                                  
E14  21040594.012   110569069.514    21040594.408    84721756.139  
E03  29254266.100   153732212.147    29254274.727   117794846.472  
E34  25550968.349   134271245.034    25550968.616   102883161.498  
E05  24127872.394   126792834.771    24127871.960    97152946.722  
G04  22231320.367   116826380.146    22231317.735    91033532.898  
G09  24414009.520   128296487.659    24414011.985    99971307.746  
E27  30032194.962   157820303.830                                  
> 2025 07 22 11 31 22.0050000  0 32                     
G17  23044935.550   121101950.166    23044929.719    94365135.297  
G02  24351488.360   127967954.651                                  
G19  23475049.517   123362217.712                                  
G01  22194489.879   116632829.626    22194486.205    90882714.684  
S23  39403688.459   207067782.967  
G03  21606703.854   113543994.470    21606702.169    88475828.186  
C06  41269185.062   214899462.020                                  
C20  23387445.722   121784567.557                                  
C35  24916712.832   129747871.545                                  
C19  24375254.988   126928361.258                                  
C30  26373250.556   137332450.916                                  
C29  23168645.533   120645216.660                                  
R17  25086957.456   134245422.351    25086953.831                  
R24  21151417.860   113106123.770    21151415.176    87971420.685  
R01  20891354.497   111676256.247                                  
R08  21853130.795   117022423.728    21853131.862                  
R02  24271678.783   129518323.025    24271684.139   100736483.205  
G06  26012496.048   136696562.017    26012506.327   106516829.817  
G22  26994659.598   141857950.996                                  
G31  25115413.052   131982330.896    25115412.049   102843427.983  
S36  39037964.448   205145879.532  
E36  25411781.169   133539805.172    25411782.213   102322719.882  
C09  41745197.904   217378185.201    41745190.180   168090573.834  
R22  25480758.113                                                  
R23  21881314.223   117050339.972                                  
E14  21040166.050   110566820.982    21040166.449    84720033.250  
E03  29253739.555   153729445.868    29253748.353   117792726.874  
E34  25550768.245   134270193.417    25550768.510   102882355.710  
E05  24127584.753   126791322.339    24127584.230    97151787.853  
G04  22231021.277   116824807.956    22231018.603    91032307.827  
G09  24413407.368   128293322.890    24413409.720    99968841.704  
E27  30032356.978   157821154.622                                  
> 2025 07 22 11 31 23.0050000  0 32                     
G17  23044982.642   121102197.506    23044976.887    94365328.011  
G02  24352036.904   127970837.744                                  
G19  23474734.763   123360563.681                                  
G01  22194838.364   116634661.002    22194834.677    90884141.743  
S23  39403763.548   207068177.273  
G03  21606933.732   113545202.461    21606932.104    88476769.518  
C06  41269112.948   214899086.171                                  
C20  23387681.861   121785797.799                                  
C35  24916364.844   129746060.181                                  
C19  24374974.246   126926899.603                                  
C30  26373947.735   137336081.286                                  
C29  23168950.705   120646805.878                                  
R17  25086260.173   134241691.286    25086253.597                  
R24  21151127.099   113104568.901    21151124.500    87970211.325  
R01  20891188.183   111675367.605                                  
R08  21853720.486   117025581.211    21853722.135                  
R02  24271045.687   129514944.396    24271050.904   100733855.389  
G06  26011958.549   136693737.536    26011968.863   106514628.876  
G22  26995137.277   141860470.736                                  
G31  25115285.029   131981659.166    25115284.184   102842904.600  
S36  39038039.181   205146271.941  
E36  25412027.774   133541100.798    25412028.686   102323712.623  
C09  41745040.610   217377365.944    41745032.779   168089940.343  
R22  25481581.965                                                  
R23  21881875.173   117053340.549                                  
E14  21039738.731   110564574.884    21039739.033    84718312.211  
E03  29253213.249   153726680.750    29253222.144   117790608.156  
E34  25550568.403   134269143.047    25550568.656   102881550.882  
E05  24127297.131   126789811.371    24127296.753    97150630.097  
G04  22230722.467   116823237.437    22230719.736    91031084.028  
G09  24412805.329   128290159.463    24412807.684    99966376.691  
E27  30032519.594   157822006.960                                  
> 2025 07 22 11 31 24.0050000  0 32                     
G17  23045030.136   121102446.589    23045024.214    94365522.106  
G02  24352585.857   127973722.269                                  
G19  23474420.304   123358911.384                                  
G01  22195187.029   116636493.909    22195183.517    90885569.984  
S23  39403838.833   207068572.708  
G03  21607163.874   113546411.950    21607162.299    88477711.936  
C06  41269040.991   214898711.719                                  
C20  23387918.294   121787029.551                                  
C35  24916017.269   129744250.291                                  
C19  24374693.879   126925439.435                                  
C30  26374645.220   137339712.892                                  
C29  23169256.279   120648396.703                                  
R17  25085563.130   134237961.427    25085555.091                  
R24  21150836.567   113103015.746    21150833.951    87969003.326  
R01  20891022.129   111674480.805                                  
R08  21854310.420   117028740.285    21854312.305                  
R02  24270412.801   129511567.237    24270418.047   100731228.704  
G06  26011421.247   136690914.221    26011431.405   106512428.912  
G22  26995618.226   141862991.669                                  
G31  25115157.611   131980989.172    25115156.763   102842382.559  
S36  39038114.018   205146665.475  
E36  25412274.755   133542397.809    25412275.385   102324706.400  
C09  41744883.571   217376547.955    41744875.643   168089307.858  
R22  25482407.447                                                  
R23  21882436.489   117056342.857                                  
E14  21039311.456   110562331.245    21039312.248    84716593.072  
E03  29252687.496   153723916.805    29252696.170   117788490.372  
E34  25550368.881   134268093.986    25550369.037   102880747.079  
E05  24127009.992   126788301.914    24127009.428    97149473.488  
G04  22230423.926   116821668.572    22230421.277    91029861.556  
G09  24412203.491   128286997.386    24412205.878    99963912.755  
E27  30032682.706   157822860.882                                  
> 2025 07 22 11 31 25.0050000  0 32                     
G17  23045077.893   121102697.539    23045071.943    94365717.639  
G02  24353135.074   127976608.309                                  
G19  23474106.229   123357260.946                                  
G01  22195536.183   116638328.515    22195532.529    90886999.531  
S23  39403914.531   207068969.375  
G03  21607394.279   113547623.018    21607392.794    88478655.629  
C06  41268969.255   214898338.670                                  
C20  23388155.185   121788262.921                                  
C35  24915669.983   129742441.982                                  
C19  24374413.642   126923980.871                                  
C30  26375342.809   137343345.923                                  
C29  23169562.179   120649989.279                                  
R17  25084866.330   134234232.713    25084858.193   104404332.8433 
R24  21150546.448   113101464.473    21150543.918    87967796.789  
R01  20890856.567   111673596.051                                  
R08  21854900.662   117031901.062    21854903.579                  
R02  24269780.314   129508191.633    24269785.492   100728603.272  
G06  26010884.250   136688092.141    26010894.238   106510229.893  
G22  26996098.915   141865513.986                                  
G31  25115030.413   131980321.025    25115029.632   102841861.903  
S36  39038189.134   205147060.283  
E36  25412521.911   133543696.282    25412522.351   102325701.348  
C09  41744726.592   217375731.406    41744718.835   168088676.406  
R22  25483233.805                                                  
R23  21882998.065   117059347.048                                  
E14  21038884.798   110560090.242    21038885.647    84714875.924  
E03  29252161.699   153721154.160    29252170.584   117786373.515  
E34  25550169.599   134267046.356    25550169.684   102879944.336  
E05  24126723.289   126786794.070    24126722.500    97148318.146  
G04  22230125.942   116820101.501    22230123.100    91028640.464  
G09  24411602.037   128283836.787    24411604.342    99961449.947  
E27  30032845.919   157823716.435                                  
> 2025 07 22 11 31 26.0050000  0 32                     
G17  23045125.733   121102948.839    23045119.784    94365913.467  
G02  24353684.311   127979494.380                                  
G19  23473792.139   123355610.835                                  
G01  22195885.409   116640163.278    22195881.629    90888429.238  
S23  39403989.931   207069365.751  
G03  21607624.717   113548834.184    21607623.261    88479599.435  
C06  41268897.630   214897965.541                                  
C20  23388392.141   121789496.425                                  
C35  24915322.582   129740633.781                                  
C19  24374133.550   126922522.426                                  
C30  26376040.577   137346978.858                                  
C29  23169868.062   120651582.130                                  
R17  25084169.451   134230503.820    25084162.936                  
R24  21150256.323   113099913.585    21150253.871    87966590.546  
R01  20890691.097   111672711.720                                  
R08  21855491.185   117035062.098    21855494.535                  
R02  24269147.792   129504816.077    24269152.895   100725977.863  
G06  26010347.224   136685269.823    26010357.218   106508030.681  
G22  26996571.436                1                                 
G31  25114903.224   131979653.184    25114902.578   102841341.504  
S36  39038264.190   205147454.931  
E36  25412769.213   133544994.786    25412769.445   102326696.325  
C09  41744569.694   217374914.706    41744561.870   168088044.897  
R22  25484060.035                                                  
R23  21883559.734   117062351.611                                  
E14  21038458.223   110557850.296    21038459.272    84713159.616  
E03  29251635.973   153718391.318    29251644.891   117784256.547  
E34  25549970.382   134265998.644    25549970.248   102879141.530  
E05  24126436.372   126785286.383    24126435.479    97147162.903  
G04  22229827.670   116818534.747    22229825.011    91027419.604  
G09  24411000.607   128280676.175    24411002.861    99958987.154  
E27  30033009.491   157824572.236                                  
> 2025 07 22 11 31 27.0050000  0 32                     
G17  23045173.774   121103201.082    23045167.778    94366110.024  
G02  24354233.644   127982381.043                                  
G19  23473478.299   123353961.643                                  
G01  22196234.847   116641998.809    22196230.965    90889859.498  
S23  39404065.413   207069762.542  
G03  21607855.356   113550046.023    21607853.831    88480543.716  
C06  41268826.078   214897592.956                                  
C20  23388629.138   121790730.659                                  
C35  24914975.425   129738826.266                                  
C19  24373853.635   126921064.652                                  
C30  26376738.399   137350612.320                                  
C29  23170174.017   120653175.780                                  
R17  25083472.665   134226775.277    25083466.681                  
R24  21149966.425   113098363.644    21149963.971    87965385.010  
R01  20890525.952   111671828.429                                  
R08  21856081.401   117038223.801    21856084.690                  
R02  24268515.355   129501441.199    24268520.346   100723352.969  
G06  26009810.277   136682447.900    26009820.188   106505831.721  
G22  26997049.077                                                  
G31  25114776.245   131978986.296    25114775.785   102840821.874  
S36  39038339.305   205147849.889  
E36  25413016.508   133546293.901    25413016.689   102327691.732  
C09  41744412.945   217374098.521    41744405.122   168087413.771  
R22  25484884.985                                                  
R23  21884121.570   117065357.091                                  
E14  21038032.342   110555612.045    21038033.351    84711444.587  
E03  29251110.355   153715628.847    29251119.130   117782139.834  
E34  25549771.094   134264951.408    25549771.037   102878339.122  
E05  24126149.681   126783779.376    24126148.675    97146008.173  
G04  22229529.643   116816968.857    22229526.958    91026199.440  
G09  24410399.205   128277516.139    24410401.464    99956524.767  
E27  30033173.232   157825428.772                                  
> 2025 07 22 11 31 28.0050000  0 32                     
G17  23045222.012   121103454.808    23045216.071    94366307.732  
G02  24354783.239   127985268.853                                  
G19  23473164.706   123352313.929                                  
G01  22196584.384   116643835.610    22196580.556    90891290.792  
S23  39404141.111   207070160.133  
G03  21608086.310   113551259.066    21608084.656    88481488.951  
C06  41268754.709   214897221.426                                  
C20  23388866.369   121791966.155                                  
C35  24914628.320   129737019.954                                  
C19  24373574.005   126919608.118                                  
C30  26377436.306   137354246.861                                  
C29  23170480.119   120654770.784                                  
R17  25082776.092   134223047.716    25082770.091                  
R24  21149676.742   113096815.183    21149674.403    87964180.676  
R01  20890360.921   111670946.732                                  
R08  21856671.837   117041386.843    21856674.774                  
R02  24267883.183   129498067.553    24267888.105   100720729.027  
G06  26009273.377   136679626.777    26009283.414   106503633.481  
G22  26997529.460                                                  
G31  25114649.680   131978320.846    25114649.090   102840303.341  
S36  39038414.587   205148245.610  
E36  25413263.895   133547594.141    25413264.117   102328688.044  
C09  41744256.405   217373283.343    41744248.502   168086783.450  
R22  25485711.861                                                  
R23  21884683.744   117068364.045                                  
E14  21037606.964   110553376.006    21037607.898    84709731.258  
E03  29250584.925   153712867.318    29250593.533   117780023.874  
E34  25549571.834   134263905.231    25549572.099   102877537.510  
E05  24125862.936   126782273.633    24125862.188    97144854.428  
G04  22229231.924   116815404.370    22229229.174    91024980.375  
G09  24409798.084   128274357.202    24409800.290    99954063.267  
E27  30033337.002   157826286.616                                  
> 2025 07 22 11 31 29.0050000  0 32                     
G17  23045270.639   121103709.972    23045264.521    94366506.556  
G02  24355333.005   127988157.755                                  
G19  23472851.265   123350667.627                                  
G01  22196934.194   116645673.651    22196930.330    90892722.996  
S23  39404216.955   207070558.525  
G03  21608317.356   113552473.282    21608315.752    88482435.064  
C06  41268683.557   214896850.875                                  
C20  23389103.963   121793202.809                                  
C35  24914281.650   129735214.794                                  
C19  24373294.484   126918152.734                                  
C30  26378134.508   137357882.281                                  
C29  23170786.726   120656367.099                                  
R17  25082079.624   134219320.945    25082074.296                  
R24  21149387.459   113095268.178    21149385.127    87962977.442  
R01  20890196.364   111670066.562                                  
R08  21857262.712   117044551.233    21857267.824                  
R02  24267251.247   129494695.008    24267256.046   100718105.932  
G06  26008736.790   136676806.546    26008746.691   106501435.878  
G22  26998009.519                                                  
G31  25114523.328   131977656.749    25114522.651   102839785.875  
S36  39038490.031   205148642.129  
E36  25413511.848   133548895.445    25413511.700   102329685.117  
C09  41744100.195   217372469.155    41744092.222   168086153.843  
R22  25486536.556                                                  
R23  21885246.193   117071372.450                                  
E14  21037181.567   110551142.120    21037182.743    84708019.575  
E03  29250059.430   153710106.623    29250068.342   117777908.532  
E34  25549372.963   134262860.016    25549373.241   102876736.612  
E05  24125576.656   126780769.070    24125575.866    97143701.579  
G04  22228934.519   116813841.268    22228931.798    91023762.365  
G09  24409197.085   128271199.285    24409199.330    99951602.570  
E27  30033500.743   157827145.728    30033524.252                  
> 2025 07 22 11 31 30.0050000  0 32                     
G17  23045319.588   121103966.850    23045313.327    94366706.711  
G02  24355883.135   127991048.030                                  
G19  23472538.405   123349023.035                                  
G01  22197284.354   116647513.192    22197280.426    90894156.418  
S23  39404292.979   207070958.026  
G03  21608548.716   113553688.948    21608547.061    88483382.340  
C06  41268612.707   214896481.660                                  
C20  23389341.797   121794440.963                                  
C35  24913935.193   129733411.088                                  
C19  24373015.319   126916698.818                                  
C30  26378832.748   137361518.928                                  
C29  23171093.652   120657965.014                                  
R17  25081383.344   134215595.296    25081379.230                  
R24  21149098.414   113093722.866    21149096.152    87961775.567  
R01  20890032.039   111669188.215                                  
R08  21857854.118   117047717.216    21857859.457                  
R02  24266619.521   129491323.881    24266624.237   100715483.961  
G06  26008200.366   136673987.395    26008210.293   106499239.196  
G22  26998489.007                                                  
G31  25114397.388   131976994.413    25114396.539   102839269.776  
S36  39038565.702   205149039.684  
E36  25413759.801   133550198.124    25413759.702   102330683.262  
C09  41743944.232   217371656.203    41743936.126   168085525.251  
R22  25487363.986                                                  
R23  21885809.035   117074382.618                                  
E14  21036756.862   110548910.688    21036758.096    84706309.772  
E03  29249534.259   153707347.106    29249543.170   117775794.136  
E34  25549174.560   134261816.097    25549174.583   102875936.723  
E05  24125290.530   126779265.994    24125289.878    97142549.873  
G04  22228637.328   116812279.805    22228634.651    91022545.652  
G09  24408596.314   128268042.725    24408598.623    99949142.917  
E27  30033665.131   157828006.373    30033691.089   120933215.6451 
> 2025 07 22 11 31 31.0050000  0 32                     
G17  23045368.843   121104225.203    23045362.443    94366908.008  
G02  24356433.423   127993939.443                                  
G19  23472225.686   123347379.899                                  
G01  22197634.740   116649354.025    22197630.720    90895590.841  
S23  39404369.180   207071358.424  
G03  21608780.189   113554905.812    21608778.641    88484330.517  
C06  41268542.065   214896113.450                                  
C20  23389579.821   121795680.377                                  
C35  24913588.934   129731608.587                                  
C19  24372736.450   126915246.102                                  
C30  26379531.484   137365156.678                                  
C29  23171400.640   120659564.289                                  
R17  25080687.240   134211870.502    25080681.374                  
R24  21148809.586   113092179.050    21148807.408    87960574.805  
R01  20889868.034   111668311.439                                  
R08  21858445.653   117050884.490    21858449.356                  
R02  24265988.052   129487953.941    24265992.632   100712862.902  
G06  26007664.039   136671169.178    26007673.853   106497043.130  
G22  26998969.284                                                  
G31  25114271.629   131976333.498    25114270.678   102838754.802  
S36  39038641.431   205149438.123  
E36  25414008.107   133551501.930    25414007.741   102331682.287  
C09  41743788.399   217370844.217    41743780.225   168084897.374  
R22  25488191.815                                                  
R23  21886372.202   117077394.240                                  
E14  21036332.712   110546681.457    21036333.849    84704601.666  
E03  29249009.460   153704588.486    29249018.246   117773680.383  
E34  25548976.037   134260773.197    25548976.089   102875137.618  
E05  24125004.800   126777764.155    24125004.013    97141399.114  
G04  22228340.427   116810719.762    22228337.851    91021330.033  
G09  24407995.815   128264887.262    24407998.168    99946684.112  
E27  30033829.774   157828868.306    30033855.486   120933876.121  
> 2025 07 22 11 31 32.0050000  0 32                     
G17  23045418.396   121104485.168    23045412.006    94367110.581  
G02  24356983.979   127996832.140                                  
G19  23471913.216   123345738.365                                  
G01  22197985.302   116651196.265    22197981.330    90897026.362  
S23  39404445.553   207071759.848  
G03  21609012.023   113556124.029    21609010.517    88485279.807  
C06  41268471.455   214895746.451                                  
C20  23389818.162   121796921.142                                  
C35  24913242.987   129729807.435                                  
C19  24372457.627   126913794.778                                  
C30  26380230.355   137368795.647                                  
C29  23171707.927   120661165.054                                  
R17  25079991.226   134208146.795    25079986.679                  
R24  21148521.108   113090636.895    21148519.033    87959375.348  
R01  20889704.306   111667436.395                                  
R08  21859037.603   117054053.198    21859040.411                  
R02  24265356.894   129484585.355    24265361.362   100710242.896  
G06  26007127.948   136668351.924    26007137.596   106494847.924  
G22  26999452.371                                                  
G31  25114146.283   131975674.180    25114144.923   102838241.014  
S36  39038717.388   205149837.554  
E36  25414256.332   133552806.970    25414256.258   102332682.269  
C09  41743632.694   217370033.409    41743624.504   168084270.419  
R22  25489021.347                                                  
R23  21886935.646   117080407.509                                  
E14  21035909.244   110544454.574    21035910.006    84702895.364  
E03  29248484.573   153701830.936    29248493.375   117771567.453  
E34  25548777.869   134259731.463    25548777.893   102874339.416  
E05  24124719.112   126776263.700    24124718.420    97140249.412  
G04  22228043.844   116809161.253    22228041.335    91020115.621  
G09  24407395.674   128261733.023    24407397.864    99944226.285  
E27  30033994.468   157829731.696    30034019.900   120934537.688  
> 2025 07 22 11 31 33.0050000  0 32                     
G17  23045468.080   121104746.217    23045461.730    94367314.019  
G02  24357534.564   127999725.631                                  
G19  23471600.976   123344097.894                                  
G01  22198335.999   116653039.443    22198332.107    90898462.587  
S23  39404522.003   207072161.774  
G03  21609243.958   113557343.063    21609242.409    88486229.698  
C06  41268401.127   214895380.090                                  
C20  23390056.525   121798162.785                                  
C35  24912897.295   129728007.100                                  
C19  24372179.013   126912344.253                                  
C30  26380929.324   137372435.091                                  
C29  23172015.586   120662766.801                                  
R17  25079295.301   134204423.653    25079290.859                  
R24  21148232.760   113089095.853    21148230.851    87958176.774  
R01  20889540.731   111666562.551                                  
R08  21859629.523   117057222.896    21859631.201                  
R02  24264725.824   129481217.522    24264730.159   100707623.482  
G06  26006591.946   136665535.176    26006601.324   106492653.059  
G22  26999937.964                                                  
G31  25114021.025   131975015.923    25114019.551   102837728.092  
S36  39038793.495   205150237.512  
E36  25414504.927   133554112.804    25414504.788   102333682.816  
C09  41743477.140   217369223.243    41743468.853   168083643.914  
R22  25489847.986                                                  
R23  21887499.317   117083421.859                                  
E14  21035486.174   110542229.524    21035486.635    84701190.449  
E03  29247959.847   153699073.909    29247968.463   117769454.946  
E34  25548579.954   134258690.390    25548579.718   102873541.698  
E05  24124433.490   126774764.109    24124433.273    97139100.388  
G04  22227747.457   116807603.788    22227745.015    91018902.010  
G09  24406795.518   128258579.506    24406797.854    99941769.002  
E27  30034159.140   157830596.018    30034184.311   120935199.967  
> 2025 07 22 11 31 34.0050000  0 32                     
G17  23045518.117   121105008.576    23045511.649    94367518.447  
G02  24358085.381   128002620.057                                  
G19  23471289.085   123342458.734                                  
G01  22198686.903   116654883.683    22198682.947    90899899.672  
S23  39404598.529   207072564.332  
G03  21609476.138   113558563.122    21609474.522    88487180.380  
C06  41268330.819   214895014.656                                  
C20  23390295.092   121799405.494                                  
C35  24912551.693   129726207.802                                  
C19  24371900.693   126910894.789                                  
C30  26381628.444   137376075.471                                  
C29  23172323.471   120664369.719                                  
R17  25078599.604   134200701.190    25078595.560                  
R24  21147944.800   113087556.108    21147942.754    87956979.224  
R01  20889377.436   111665690.094                                  
R08  21860221.595   117060393.665    21860221.312                  
R02  24264094.992   129477850.703    24264099.283   100705004.841  
G06  26006056.118   136662719.136    26006065.438   106490458.730  
G22  27000424.903                                                  
G31  25113896.087   131974358.908    25113894.309   102837216.114  
S36  39038869.746   205150638.160  
E36  25414753.715   133555419.527    25414753.461   102334684.098  
C09  41743321.897   217368413.935    41743313.423   168083018.123  
R22  25490675.670                                                  
R23  21888063.162   117086437.521                                  
E14  21035063.332   110540006.501    21035063.646    84699487.093  
E03  29247435.299   153696317.620    29247443.896   117767342.987  
E34  25548382.083   134257650.163    25548381.786   102872744.641  
E05  24124148.416   126773265.566    24124148.001    97137952.145  
G04  22227451.164   116806047.540    22227448.861    91017689.347  
G09  24406195.486   128255426.902    24406197.948    99939312.429  
E27  30034324.087   157831461.424    30034349.409   120935863.093  
> 2025 07 22 11 31 35.0050000  0 32                     
G17  23045568.237   121105271.927    23045561.841    94367723.644  
G02  24358636.301   128005515.104                                  
G19  23470977.333   123340820.533                                  
G01  22199037.949   116656728.734    22199034.050    90901337.364  
S23  39404675.240   207072967.286  
G03  21609708.502   113559783.894    21609706.869    88488131.618  
C06  41268260.655   214894649.738                                  
C20  23390533.829   121800648.955                                  
C35  24912206.210   129724409.230                                  
C19  24371622.398   126909446.052                                  
C30  26382327.607   137379716.411                                  
C29  23172631.502   120665973.500                                  
R17  25077904.053   134196979.130    25077898.026                  
R24  21147657.007   113086017.337    21147654.903    87955782.403  
R01  20889214.467   111664818.713                                  
R08  21860814.051   117063565.227    21860811.869                  
R02  24263464.388   129474484.521    24263468.467   100702386.701  
G06  26005520.458   136659903.497    26005529.301   106488264.769  
G22  27000910.102                                                  
G31  25113771.395   131973702.901    25113769.633   102836704.958  
S36  39038946.094   205151039.211  
E36  25415002.328   133556726.900    25415002.311   102335685.845  
C09  41743166.541   217367605.095    41743158.109   168082392.671  
R22  25491501.770                                                  
R23  21888627.029   117089454.162                                  
E14  21034640.603   110537785.195    21034640.880    84697785.055  
E03  29246910.912   153693561.766    29246919.503   117765231.375  
E34  25548184.244   134256610.465    25548183.962   102871947.999  
E05  24123863.417   126771767.796    24123863.042    97136804.506  
G04  22227155.172   116804492.228    22227152.918    91016477.413  
G09  24405595.716   128252274.905    24405598.090    99936856.341  
E27  30034489.197   157832327.668    30034514.598   120936526.844  
> 2025 07 22 11 31 36.0050000  0 32                     
G17  23045618.730   121105536.881    23045612.260    94367930.110  
G02  24359187.555   128008411.476                                  
G19  23470665.852   123339183.935                                  
G01  22199389.395   116658575.189    22199385.416    90902776.144  
S23  39404752.070   207073371.277  
G03  21609941.102   113561006.022    21609939.356    88489083.939  
C06  41268190.744   214894285.993                                  
C20  23390772.835   121801893.801                                  
C35  24911861.232   129722611.999                                  
C19  24371344.480   126907998.673                                  
C30  26383027.043   137383358.419                                  
C29  23172939.769   120667578.783                                  
R17  25077208.694   134193258.052    25077201.891                  
R24  21147369.454   113084480.208    21147367.455    87954586.837  
R01  20889051.747   111663949.071                                  
R08  21861406.543   117066738.335    21861404.074                  
R02  24262833.889   129471119.740    24262837.837   100699769.638  
G06  26004984.907   136657088.872    26004993.264   106486071.507  
G22  27001396.392                                                  
G31  25113646.877   131973048.434    25113645.265   102836194.963  
S36  39039022.548   205151441.310  
E36  25415251.421   133558035.546    25415251.334   102336688.559  
C09  41743011.459   217366797.429    41743003.077   168081768.165  
R22  25492328.010                                                  
R23  21889191.278   117092472.456                                  
E14  21034218.448   110535566.247    21034218.478    84696084.819  
E03  29246386.541   153690806.943    29246395.321   117763120.526  
E34  25547986.767   134255571.958    25547986.355   102871152.260  
E05  24123578.516   126770271.394    24123578.293    97135657.917  
G04  22226859.430   116802938.477    22226857.152    91015266.705  
G09  24404996.103   128249124.145    24404998.581    99934401.212  
E27  30034654.555   157833195.354    30034680.036   120937191.706  
> 2025 07 22 11 31 37.0050000  0 32                     
G17  23045669.500   121105802.958    23045663.010    94368137.459  
G02  24359738.955   128011308.591                                  
G19  23470354.596   123337548.436                                  
G01  22199741.053   116660422.581    22199736.950    90904215.685  
S23  39404829.012   207073775.770  
G03  21610173.806   113562229.010    21610172.047    88490036.907  
C06  41268121.160   214893922.988                                  
C20  23391012.132   121803139.544                                  
C35  24911516.282   129720815.629                                  
C19  24371066.755   126906552.158                                  
C30  26383726.622   137387001.152                                  
C29  23173248.204   120669185.082                                  
R17  25076513.402   134189537.512    25076506.474                  
R24  21147082.214   113082944.241    21147080.144    87953392.195  
R01  20888889.287   111663080.634                                  
R08  21861999.292   117069912.285    21861997.345                  
R02  24262203.587   129467755.813    24262207.462   100697153.264  
G06  26004449.438   136654274.783    26004457.457   106483878.653  
G22  27001882.262                                                  
G31  25113522.646   131972395.079    25113520.775   102835685.887  
S36  39039099.166   205151843.937  
E36  25415500.833   133559344.972    25415500.642   102337691.875  
C09  41742856.567   217365990.438    41742848.117   168081144.150  
R22  25493156.144                                                  
R23  21889755.656   117095491.874                                  
E14  21033796.628   110533349.155    21033796.726    84694386.014  
E03  29245862.597   153688052.703    29245871.139   117761010.157  
E34  25547789.198   134254534.123    25547789.013   102870357.036  
E05  24123293.694   126768775.881    24123293.600    97134512.005  
G04  22226563.922   116801385.774    22226561.734    91014056.791  
G09  24404396.761   128245974.146    24404399.120    99931946.653  
E27  30034819.943   157834063.989    30034845.800   120937857.295  
> 2025 07 22 11 31 38.0050000  0 31                     
G17  23045720.394   121106070.413    23045713.853    94368345.844  
G02  24360290.503   128014206.763                                  
G19  23470043.643   123335914.299                                  
G01  22200092.898   116662271.144    22200088.760    90905656.121  
S23  39404906.276   207074180.999  
G03  21610406.719   113563453.078    21610405.020    88490990.743  
C06  41268051.686   214893560.887                                  
C20  23391251.390   121804386.405                                  
C35  24911171.414   129719020.360                                  
C19  24370789.238   126905106.777                                  
C30  26384426.403   137390644.808                                  
C29  23173556.810   120670792.606                                  
R17  25075818.251   134185817.778    25075811.609                  
R24  21146795.190   113081409.630    21146793.006    87952198.594  
R01  20888727.028   111662213.690                                  
R08  21862592.129   117073087.655    21862589.964                  
R02  24261573.510   129464392.967    24261577.301   100694537.724  
G06  26003914.133   136651461.438    26003920.788                  
G31  25113398.520   131971743.082    25113396.812   102835177.792  
S36  39039175.952   205152247.235  
E36  25415750.418   133560655.405    25415749.915   102338695.966  
C09  41742701.706   217365184.328    41742693.300   168080520.813  
R22  25493985.412                                                  
R23  21890320.321   117098512.628                                  
E14  21033375.403   110531134.155    21033375.258    84692688.802  
E03  29245338.623   153685299.248    29245347.148   117758900.383  
E34  25547591.856   134253497.200    25547591.607   102869562.515  
E05  24123009.070   126767281.504    24123009.320    97133366.963  
G04  22226268.739   116799834.366    22226266.449    91012847.917  
G09  24403797.429   128242825.107    24403799.933    99929492.874  
E27  30034985.821   157834933.785    30035011.882   120938523.803  
> 2025 07 22 11 31 39.0050000  0 31                     
G17  23045771.522   121106339.430    23045765.090    94368555.472  
G02  24360842.229   128017106.181                                  
G19  23469733.034   123334281.704                                  
G01  22200444.891   116664121.074    22200440.943    90907097.611  
S23  39404983.585   207074587.191  
G03  21610639.983   113564678.479    21610638.176    88491945.575  
C06  41267982.216   214893199.959                                  
C20  23391490.995   121805634.589                                  
C35  24910826.888   129717226.390                                  
C19  24370511.946   126903662.687                                  
C30  26385126.418   137394289.554                                  
C29  23173865.933   120672401.594                                  
R17  25075123.372   134182099.094    25075115.037                  
R24  21146508.505   113079876.576    21146506.323    87951006.239  
R01  20888565.109   111661348.406                                  
R08  21863185.358   117076264.205    21863184.878                  
R02  24260943.787   129461031.404    24260947.357   100691923.174  
G06  26003378.962   136648649.071    26003382.200                  
G31  25113274.598   131971092.624    25113273.198   102834670.986  
S36  39039252.893   205152651.467  
E36  25416000.235   133561967.034    25415999.611   102339701.009  
C09  41742547.013   217364379.368    41742538.744   168079898.330  
R22  25494812.655                                                  
R23  21890885.406   117101534.993                                  
E14  21032954.566   110528921.474    21032954.138    84690993.363  
E03  29244814.920   153682546.813    29244823.292   117756791.351  
E34  25547394.617   134252461.421    25547394.660   102868768.851  
E05  24122724.973   126765788.448    24122725.210    97132222.929  
G04  22225973.826   116798284.467    22225971.482    91011640.202  
G09  24403198.396   128239677.261    24403200.896    99927040.015  
E27  30035151.902   157835805.004    30035178.034   120939191.384  
> 2025 07 22 11 31 40.0050000  0 31                     
G17  23045822.992   121106609.886    23045816.528    94368766.197  
G02  24361394.196   128020006.674                                  
G19  23469422.676   123332650.530                                  
G01  22200797.154   116665972.253    22200793.263    90908540.066  
S23  39405060.991   207074994.166  
G03  21610873.476   113565905.014    21610871.470    88492901.320  
C06  41267912.916   214892840.031                                  
C20  23391730.861   121806883.991                                  
C35  24910482.626   129715433.570                                  
C19  24370234.853   126902219.759                                  
C30  26385826.708   137397935.309                                  
C29  23174175.199   120674011.884                                  
R17  25074428.474   134178381.247    25074419.704                  
R24  21146222.207   113078345.045    21146219.874    87949815.014  
R01  20888403.490   111660484.659                                  
R08  21863778.747   117079442.224    21863779.146                  
R02  24260314.164   129457670.964    24260317.589   100689309.496  
G06  26002843.890   136645837.553    26002844.457                  
G31  25113151.021   131970443.522    25113150.027   102834165.211  
S36  39039329.892   205153056.506  
E36  25416250.137   133563279.752    25416249.306   102340706.848  
C09  41742392.589   217363575.346    41742384.421   168079276.604  
R22  25495641.160                                                  
R23  21891450.713   117104558.779                                  
E14  21032533.997   110526710.931    21032533.558    84689299.576  
E03  29244291.231   153679795.235    29244299.707   117754683.028  
E34  25547197.884   134251426.618    25547197.694   102867975.948  
E05  24122440.832   126764296.585    24122441.159    97131079.822  
G04  22225679.047   116796735.936    22225676.813    91010433.543  
G09  24402599.540   128236530.489    24402602.033    99924587.970  
E27  30035318.434   157836677.472    30035344.115   120939859.876  
> 2025 07 22 11 31 41.0050000  0 31                     
G17  23045874.660   121106881.628    23045868.256    94368977.946  
G02  24361946.359   128022908.112                                  
G19  23469112.528   123331020.652                                  
G01  22201149.638   116667824.529    22201145.800    90909983.430  
S23  39405138.673   207075401.917  
G03  21611107.051   113567132.586    21611105.008    88493857.872  
C06  41267843.939   214892480.989                                  
C20  23391970.894   121808134.462                                  
C35  24910138.485   129713641.800                                  
C19  24369958.089   126900777.881                                  
C30  26386527.049   137401581.853                                  
C29  23174484.647   120675623.350                                  
R17  25073733.801   134174664.124    25073723.934                  
R24  21145936.164   113076814.832    21145933.736    87948624.881  
R01  20888242.161   111659622.331                                  
R08  21864372.627   117082621.339    21864374.898                  
R02  24259684.665   129454311.523    24259688.004   100686696.603  
G06  26002309.049   136643026.716    26002308.060                  
G31  25113027.702   131969795.762    25113026.786   102833660.438  
S36  39039407.197   205153462.224  
E36  25416500.062   133564593.434    25416499.083   102341713.429  
C09  41742238.402   217362772.145    41742230.094   168078655.566  
R22  25496469.398                                                  
R23  21892016.182   117107583.878                                  
E14  21032113.807   110524502.459    21032113.269    84687607.360  
E03  29243767.746   153677044.416    29243776.249   117752575.247  
E34  25547001.050   134250392.670    25547000.941   102867183.715  
E05  24122157.116   126762805.810    24122157.612    97129937.538  
G04  22225384.529   116795188.654    22225382.355    91009227.860  
G09  24402000.838   128233384.641    24402003.395    99922136.684  
E27  30035484.742   157837551.064    30035510.672   120940529.270  
> 2025 07 22 11 31 42.0050000  0 31                     
G17  23045926.585   121107154.573    23045920.254    94369190.655  
G02  24362498.639   128025810.457                                  
G19  23468802.563   123329391.961                                  
G01  22201502.326   116669677.804    22201498.367    90911427.536  
S23  39405216.345   207075810.277  
G03  21611340.858   113568361.083    21611338.772    88494815.137  
C06  41267775.098   214892122.694                                  
C20  23392211.223   121809385.916                                  
C35  24909794.720   129711850.959                                  
C19  24369681.367   126899336.934                                  
C30  26387227.620   137405229.211                                  
C29  23174794.461   120677235.911                                  
R17  25073039.289   134170947.561    25073027.974                  
R24  21145650.013   113075285.809    21145647.700    87947435.653  
R01  20888081.250   111658761.331                                  
R08  21864966.319   117085801.451    21864968.233                  
R02  24259055.343   129450952.966    24259058.578   100684084.400  
G06  26001774.301   136640216.511    26001771.165                  
G31  25112904.566   131969149.144    25112903.802   102833156.618  
S36  39039484.418   205153868.462  
E36  25416750.092   133565907.949    25416749.322   102342720.660  
C09  41742084.386   217361969.701    41742075.886   168078035.039  
R22  25497296.416                                                  
R23  21892581.858   117110610.180                                  
E14  21031694.622   110522295.882    21031693.542    84685916.621  
E03  29243244.223   153674294.217    29243253.141   117750467.969  
E34  25546804.477   134249359.489    25546804.376   102866392.050  
E05  24121873.390   126761315.978    24121874.050    97128795.986  
G04  22225090.334   116793642.490    22225088.076    91008023.060  
G09  24401402.346   128230239.582    24401404.956    99919685.990  
E27  30035651.474   157838425.680    30035676.899   120941199.405  
> 2025 07 22 11 31 43.0050000  0 31                     
G17  23045978.686   121107428.453    23045972.433    94369404.050  
G02  24363051.047   128028713.382                                  
G19  23468492.840   123327764.199                                  
G01  22201855.146   116671531.837    22201851.077    90912872.231  
S23  39405294.083   207076218.913  
G03  21611574.756   113569590.263    21611572.689    88495772.929  
C06  41267706.344   214891764.945                                  
C20  23392451.616   121810638.076                                  
C35  24909451.039   129710060.799                                  
C19  24369404.824   126897896.720                                  
C30  26387928.234   137408877.031                                  
C29  23175104.377   120678849.307                                  
R17  25072344.763   134167231.358    25072331.910                  
R24  21145364.232   113073757.714    21145361.993    87946247.120  
R01  20887920.446   111657901.361                                  
R08  21865560.389   117088982.367    21865562.957                  
R02  24258426.187   129447595.053    24258429.328   100681472.692  
G06  26001239.643   136637406.633    26001235.823                  
G31  25112781.683   131968503.428    25112780.881   102832653.458  
S36  39039561.796   205154275.085  
E36  25417000.512   133567223.056    25416999.636   102343728.332  
C09  41741930.366   217361167.722    41741921.886   168077414.911  
R22  25498125.336                                                  
R23  21893147.560   117113637.406                                  
E14  21031275.136   110520091.022    21031273.825    84684227.169  
E03  29242720.853   153671544.419    29242729.776   117748360.982  
E34  25546607.904   134248326.792    25546607.708   102865600.766  
E05  24121590.045   126759826.865    24121590.810    97127654.986  
G04  22224796.316   116792097.213    22224793.976    91006818.954  
G09  24400803.946   128227095.101    24400806.569    99917235.760  
E27  30035818.371   157839301.065    30035843.503   120941870.198  
